$GPGSA,A,1,,,,,,,,,,,,,,,*1E
$GPVTG,,T,,M,,N,,K,N*2C
$GPRMC,,V,,,,,,,,,,N*53
$GPGGA,,,,,,0,,,,,,,,*66
$GPGSA,A,1,,,,,,,,,,,,,,,*1E
$GPVTG,,T,,M,,N,,K,N*2C
$GPRMC,,V,,,,,,,,,,N*53
$GPGGA,,,,,,0,,,,,,,,*66
$GPGSV,3,1,10,02,33,094,40,06,25,053,35,24,28,147,38,03,02,347,*74
$GPGSV,3,2,10,12,61,075,,14,35,254,,25,71,285,,29,34,206,*79
$GPGSV,3,3,10,31,22,307,,32,00,000,*7F
$GLGSV,3,1,10,66,15,306,31,75,68,324,33,84,62,063,33,85,50,177,35*6E
$GLGSV,3,2,10,74,49,115,,86,02,198,,73,01,123,,76,14,307,*67
$GLGSV,3,3,10,83,14,029,,67,11,357,*61
$GPGSA,A,1,,,,,,,,,,,,,,,*1E
$GPVTG,,T,,M,,N,,K,N*2C
$GPRMC,,V,,,,,,,,,,N*53
$GPGGA,,,,,,0,,,,,,,,*66
$GPGSA,A,1,,,,,,,,,,,,,,,*1E
$GPVTG,,T,,M,,N,,K,N*2C
$GPRMC,,V,,,,,,,,,,N*53
$GPGGA,,,,,,0,,,,,,,,*66
$GPGSV,3,1,10,02,33,094,40,06,25,053,35,24,28,147,38,03,02,347,*74
$GPGSV,3,2,10,12,61,075,,14,35,254,,25,71,285,,29,34,206,*79
$GPGSV,3,3,10,31,22,307,,32,00,000,*7F
$GLGSV,3,1,10,66,15,306,31,75,68,324,33,84,62,063,33,85,50,177,35*6E
$GLGSV,3,2,10,74,49,115,,86,02,198,,73,01,123,,76,14,307,*67
$GLGSV,3,3,10,83,14,029,,67,11,357,*61
$GPGSA,A,1,,,,,,,,,,,,,,,*1E
$GPVTG,,T,,M,,N,,K,N*2C
$GPRMC,,V,,,,,,,,,,N*53
$GPGGA,,,,,,0,,,,,,,,*66
$GPGSA,A,1,,,,,,,,,,,,,,,*1E
$GPVTG,,T,,M,,N,,K,N*2C
$GPRMC,,V,,,,,,,,,,N*53
$GPGGA,,,,,,0,,,,,,,,*66
$GPGSV,3,1,10,02,33,094,40,06,25,053,35,24,28,147,38,03,02,347,*74
$GPGSV,3,1,10,02,33,094,40,06,25,053,35,24,28,147,38,03,02,347,*74
$GPGSV,3,2,10,12,61,075,,14,35,254,,25,71,285,,29,34,206,*79
$GPGSV,3,3,10,31,22,307,,32,00,000,*7F
$GLGSV,3,1,10,66,15,306,31,75,68,324,33,84,62,063,33,85,50,177,35*6E
$GLGSV,3,2,10,74,49,115,,86,02,198,,73,01,123,,76,14,307,*67
$GLGSV,3,3,10,83,14,029,,67,11,357,*61
$GPGSA,A,1,,,,,,,,,,,,,,,*1E
$GPVTG,,T,,M,,N,,K,N*2C
$GPRMC,,V,,,,,,,,,,N*53
$GPGGA,,,,,,0,,,,,,,,*66
$GPGSA,A,1,,,,,,,,,,,,,,,*1E
$GPVTG,,T,,M,,N,,K,N*2C
$GPRMC,,V,,,,,,,,,,N*53
$GPGGA,,,,,,0,,,,,,,,*66
$GPGSV,3,2,10,12,61,075,,14,35,254,,25,71,285,,29,34,206,*79
$GPGSV,3,3,10,31,22,307,,32,00,000,*7F
$GLGSV,3,1,10,66,15,306,31,75,68,324,33,84,62,063,33,85,50,177,35*6E
$GLGSV,3,2,10,74,49,115,,86,02,198,,73,01,123,,76,14,307,*67
$GLGSV,3,3,10,83,14,029,,67,11,357,*61
$GPGSA,A,1,,,,,,,,,,,,,,,*1E
$GPVTG,,T,,M,,N,,K,N*2C
$GPRMC,,V,,,,,,,,,,N*53
$GPGGA,,,,,,0,,,,,,,,*66
$GPGSA,A,1,,,,,,,,,,,,,,,*1E
$GPVTG,,T,,M,,N,,K,N*2C
$GPRMC,,V,,,,,,,,,,N*53
$GPGGA,,,,,,0,,,,,,,,*66
$GPGSV,3,1,10,02,33,094,41,06,25,053,35,12,61,075,34,14,35,254,28*7A
$GPGSV,3,2,10,24,28,147,38,25,71,285,27,03,02,347,,29,34,206,*7E
$GPGSV,3,3,10,31,22,307,,32,00,000,*7F
$GLGSV,3,1,10,74,49,115,31,66,15,306,31,75,68,324,33,84,62,063,35*6E
$GLGSV,3,2,10,83,14,029,26,85,50,177,35,67,11,357,22,86,02,198,*67
$GLGSV,3,3,10,73,01,123,,76,14,307,*61
$GPGSA,A,2,02,06,24,,,,,,,,,,1.6,0.9,1.3*3D
$GPVTG,2.1,T,2.1,M,1.4,N,2.6,K,A*22
$GPRMC,060354,A,5220.010986,N,00924.813320,E,1.4,2.1,170915,0.2,W,A*05
$GPGGA,060354,5220.010986,N,00924.813320,E,1,03,0.9,94.0,M,46.0,M,,*74
$GPGSV,3,1,10,02,33,094,41,06,25,053,35,12,61,075,34,14,35,254,28*7A
$GPGSV,3,2,10,24,28,147,38,25,71,285,27,03,02,347,,29,34,206,*7E
$GPGSV,3,3,10,31,22,307,,32,00,000,*7F
$GLGSV,3,1,10,74,49,115,31,66,15,306,31,75,68,324,33,84,62,063,35*6E
$GLGSV,3,2,10,83,14,029,26,85,50,177,35,67,11,357,22,86,02,198,*67
$GLGSV,3,3,10,73,01,123,,76,14,307,*61
$GPGSA,A,2,02,06,24,,,,,,,,,,1.6,0.9,1.3*3D
$GPVTG,2.1,T,2.1,M,1.4,N,2.6,K,A*22
$GPRMC,060354,A,5220.010986,N,00924.813320,E,1.4,2.1,170915,0.2,W,A*05
$GPGGA,060354,5220.010986,N,00924.813320,E,1,03,0.9,94.0,M,46.0,M,,*74
$GPGSV,3,1,10,02,33,094,41,06,25,053,35,12,61,075,35,14,35,254,29*7A
$GPGSV,3,2,10,24,28,147,38,25,71,285,27,29,34,206,27,31,22,307,22*7C
$GPGSV,3,3,10,03,02,347,,32,00,000,*78
$GLGSV,3,1,10,74,49,115,32,66,15,306,30,75,68,324,35,84,62,063,34*6B
$GLGSV,3,2,10,83,14,029,27,85,50,177,35,67,11,357,23,86,02,198,*67
$GLGSV,3,3,10,73,01,123,,76,14,307,*61
$GPGSA,A,3,02,06,12,14,24,25,29,31,,,,,1.4,0.8,1.2*36
$GPVTG,,T,,M,0.0,N,0.0,K,A*23
$GPRMC,060355,A,5220.010597,N,00924.817028,E,0.0,,170915,0.2,W,A*2F
$GPGGA,060355,5220.010597,N,00924.817028,E,1,08,0.8,102.0,M,46.0,M,,*42
$GPGSV,3,1,10,02,33,094,41,06,25,053,35,12,61,075,35,14,35,254,29*7A
$GPGSV,3,2,10,24,28,147,38,25,71,285,27,29,34,206,27,31,22,307,22*7C
$GPGSV,3,3,10,03,02,347,,32,00,000,*78
$GLGSV,3,1,10,74,49,115,32,66,15,306,30,75,68,324,35,84,62,063,34*6B
$GLGSV,3,2,10,83,14,029,27,85,50,177,35,67,11,357,23,86,02,198,*67
$GLGSV,3,3,10,73,01,123,,76,14,307,*61
$GPGSA,A,3,02,06,12,14,24,25,29,31,,,,,1.4,0.8,1.2*36
$GPVTG,,T,,M,0.0,N,0.0,K,A*23
$GPRMC,060355,A,5220.010597,N,00924.817028,E,0.0,,170915,0.2,W,A*2F
$GPGGA,060355,5220.010597,N,00924.817028,E,1,08,0.8,102.0,M,46.0,M,,*42
$GPGSV,3,1,10,02,33,094,41,06,25,053,35,12,61,075,34,14,35,254,29*7B
$GPGSV,3,2,10,24,28,147,38,25,71,285,27,29,34,206,28,31,22,307,22*73
$GPGSV,3,3,10,03,02,347,,32,00,000,*78
$GLGSV,3,1,10,74,49,115,32,66,15,306,31,75,68,324,35,84,62,063,34*6A
$GLGSV,3,2,10,83,14,029,28,85,50,177,35,67,11,357,23,86,02,198,*68
$GLGSV,3,3,10,73,01,123,,76,14,307,*61
$GPGSA,A,3,02,06,12,14,24,25,29,31,,,,,1.4,0.8,1.2*36
$GPVTG,,T,,M,0.0,N,0.0,K,A*23
$GPRMC,060356,A,5220.011085,N,00924.817465,E,0.0,,170915,0.2,W,A*26
$GPGGA,060356,5220.011085,N,00924.817465,E,1,08,0.8,93.0,M,46.0,M,,*72
$GPGSV,3,1,10,02,33,094,41,06,25,053,35,12,61,075,34,14,35,254,29*7B
$GPGSV,3,2,10,24,28,147,38,25,71,285,27,29,34,206,28,31,22,307,22*73
$GPGSV,3,3,10,03,02,347,,32,00,000,*78
$GLGSV,3,1,10,74,49,115,32,66,15,306,31,75,68,324,35,84,62,063,34*6A
$GLGSV,3,2,10,83,14,029,28,85,50,177,35,67,11,357,23,86,02,198,*68
$GLGSV,3,3,10,73,01,123,,76,14,307,*61
$GPGSA,A,3,02,06,12,14,24,25,29,31,,,,,1.4,0.8,1.2*36
$GPVTG,,T,,M,0.0,N,0.0,K,A*23
$GPRMC,060356,A,5220.011085,N,00924.817465,E,0.0,,170915,0.2,W,A*26
$GPGGA,060356,5220.011085,N,00924.817465,E,1,08,0.8,93.0,M,46.0,M,,*72
$GPGSV,3,1,10,02,33,094,41,06,25,053,35,12,61,075,35,14,35,254,29*7A
$GPGSV,3,2,10,24,28,147,38,25,71,285,27,29,34,206,27,31,22,307,22*7C
$GPGSV,3,3,10,03,02,347,,32,00,000,*78
$GLGSV,3,1,10,74,49,115,32,66,15,306,31,73,01,123,16,76,14,307,14*68
$GLGSV,3,2,10,75,68,324,36,84,62,063,34,83,14,029,27,85,50,177,36*6F
$GLGSV,3,3,10,67,11,357,21,86,02,198,*6B
$GPGSA,A,3,02,06,12,14,24,25,29,31,,,,,1.1,0.7,0.9*36
$GPVTG,2.1,T,2.1,M,0.4,N,0.7,K,A*20
$GPRMC,060357,A,5220.012634,N,00924.816687,E,0.4,2.1,170915,0.2,W,A*0E
$GPGGA,060357,5220.012634,N,00924.816687,E,1,08,0.7,84.0,M,46.0,M,,*7A
$GPGSV,3,1,10,02,33,094,41,06,25,053,35,12,61,075,35,14,35,254,29*7A
$GPGSV,3,2,10,24,28,147,38,25,71,285,27,29,34,206,27,31,22,307,22*7C
$GPGSV,3,3,10,03,02,347,,32,00,000,*78
$GLGSV,3,1,10,74,49,115,32,66,15,306,31,73,01,123,16,76,14,307,14*68
$GLGSV,3,2,10,75,68,324,36,84,62,063,34,83,14,029,27,85,50,177,36*6F
$GLGSV,3,3,10,67,11,357,21,86,02,198,*6B
$GPGSA,A,3,02,06,12,14,24,25,29,31,,,,,1.1,0.7,0.9*36
$GPVTG,2.1,T,2.1,M,0.4,N,0.7,K,A*20
$GPRMC,060357,A,5220.012634,N,00924.816687,E,0.4,2.1,170915,0.2,W,A*0E
$GPGGA,060357,5220.012634,N,00924.816687,E,1,08,0.7,84.0,M,46.0,M,,*7A
$GPGSV,3,1,10,02,33,094,41,06,25,053,35,12,61,075,35,14,35,254,29*7A
$GPGSV,3,2,10,24,28,147,38,25,71,285,28,29,34,206,25,31,22,307,22*71
$GPGSV,3,3,10,03,02,347,,32,00,000,*78
$GLGSV,3,1,10,74,49,115,32,66,15,306,31,73,01,123,16,76,14,307,14*68
$GLGSV,3,2,10,75,68,324,36,84,62,063,34,83,14,029,28,85,50,177,35*63
$GLGSV,3,3,10,67,11,357,23,86,02,198,*69
$GPGSA,A,3,02,06,12,14,24,25,29,31,,,,,1.1,0.7,0.8*37
$GPVTG,,T,,M,0.0,N,0.0,K,A*23
$GPRMC,060358,A,5220.011005,N,00924.817056,E,0.0,,170915,0.2,W,A*24
$GPGGA,060358,5220.011005,N,00924.817056,E,1,08,0.7,80.0,M,46.0,M,,*7D
$GPGSV,3,1,10,02,33,094,41,06,25,053,35,12,61,075,35,14,35,254,29*7A
$GPGSV,3,2,10,24,28,147,38,25,71,285,28,29,34,206,25,31,22,307,22*71
$GPGSV,3,3,10,03,02,347,,32,00,000,*78
$GLGSV,3,1,10,74,49,115,32,66,15,306,31,73,01,123,16,76,14,307,14*68
$GLGSV,3,2,10,75,68,324,36,84,62,063,34,83,14,029,28,85,50,177,35*63
$GLGSV,3,3,10,67,11,357,23,86,02,198,*69
$GPGSA,A,3,02,06,12,14,24,25,29,31,,,,,1.1,0.7,0.8*37
$GPVTG,,T,,M,0.0,N,0.0,K,A*23
$GPRMC,060358,A,5220.011005,N,00924.817056,E,0.0,,170915,0.2,W,A*24
$GPGGA,060358,5220.011005,N,00924.817056,E,1,08,0.7,80.0,M,46.0,M,,*7D
$GPGSV,3,1,10,02,33,094,41,06,25,053,35,12,61,075,35,14,35,254,29*7A
$GPGSV,3,2,10,24,28,147,38,25,71,285,29,29,34,206,26,31,22,307,23*72
$GPGSV,3,3,10,03,02,347,,32,00,000,*78
$GLGSV,3,1,10,74,49,115,32,66,15,306,31,73,01,123,15,76,14,307,14*6B
$GLGSV,3,2,10,75,68,324,36,84,62,063,34,83,14,029,28,85,50,177,35*63
$GLGSV,3,3,10,67,11,357,22,86,02,198,*68
$GPGSA,A,3,02,06,12,14,24,25,29,31,,,,,1.1,0.7,0.8*37
$GPVTG,,T,,M,0.0,N,0.0,K,A*23
$GPRMC,060359,A,5220.010829,N,00924.818261,E,0.0,,170915,0.2,W,A*2B
$GPGGA,060359,5220.010829,N,00924.818261,E,1,08,0.7,79.0,M,46.0,M,,*74
$GPGSV,3,1,10,02,33,094,41,06,25,053,35,12,61,075,35,14,35,254,29*7A
$GPGSV,3,2,10,24,28,147,38,25,71,285,29,29,34,206,26,31,22,307,23*72
$GPGSV,3,3,10,03,02,347,,32,00,000,*78
$GLGSV,3,1,10,74,49,115,32,66,15,306,31,73,01,123,15,76,14,307,14*6B
$GLGSV,3,2,10,75,68,324,36,84,62,063,34,83,14,029,28,85,50,177,35*63
$GLGSV,3,3,10,67,11,357,22,86,02,198,*68
$GPGSA,A,3,02,06,12,14,24,25,29,31,,,,,1.1,0.7,0.8*37
$GPVTG,,T,,M,0.0,N,0.0,K,A*23
$GPRMC,060359,A,5220.010829,N,00924.818261,E,0.0,,170915,0.2,W,A*2B
$GPGGA,060359,5220.010829,N,00924.818261,E,1,08,0.7,79.0,M,46.0,M,,*74
$GPGSV,3,1,10,02,33,094,41,06,25,053,35,12,61,075,35,14,35,254,29*7A
$GPGSV,3,2,10,24,28,147,38,25,71,285,28,29,34,206,25,31,22,307,23*70
$GPGSV,3,3,10,03,02,347,,32,00,000,*78
$GLGSV,3,1,10,74,49,115,31,66,15,306,31,73,01,123,16,76,14,307,14*6B
$GLGSV,3,2,10,75,68,324,36,84,62,063,34,83,14,029,28,85,50,177,35*63
$GLGSV,3,3,10,67,11,357,21,86,02,198,*6B
$GPGSA,A,3,02,06,12,14,24,25,29,31,,,,,1.1,0.7,0.8*37
$GPVTG,,T,,M,0.0,N,0.0,K,A*23
$GPRMC,060400,A,5220.011320,N,00924.819097,E,0.0,,170915,0.2,W,A*29
$GPGGA,060400,5220.011320,N,00924.819097,E,1,08,0.7,80.0,M,46.0,M,,*70
$GPGSV,3,1,10,02,33,094,41,06,25,053,35,12,61,075,35,14,35,254,29*7A
$GPGSV,3,2,10,24,28,147,38,25,71,285,28,29,34,206,25,31,22,307,23*70
$GPGSV,3,3,10,03,02,347,,32,00,000,*78
$GLGSV,3,1,10,74,49,115,31,66,15,306,31,73,01,123,16,76,14,307,14*6B
$GLGSV,3,2,10,75,68,324,36,84,62,063,34,83,14,029,28,85,50,177,35*63
$GLGSV,3,3,10,67,11,357,21,86,02,198,*6B
$GPGSA,A,3,02,06,12,14,24,25,29,31,,,,,1.1,0.7,0.8*37
$GPVTG,,T,,M,0.0,N,0.0,K,A*23
$GPRMC,060400,A,5220.011320,N,00924.819097,E,0.0,,170915,0.2,W,A*29
$GPGGA,060400,5220.011320,N,00924.819097,E,1,08,0.7,80.0,M,46.0,M,,*70
$GPGSV,3,1,10,02,33,094,41,06,25,053,35,12,61,075,35,14,35,254,29*7A
$GPGSV,3,2,10,24,28,147,38,25,71,285,28,29,34,206,26,03,02,347,*75
$GPGSV,3,3,10,31,22,307,,32,00,000,*7F
$GLGSV,3,1,10,74,49,115,31,66,15,306,31,73,01,123,15,76,14,307,14*68
$GLGSV,3,2,10,75,68,324,36,84,62,063,34,83,14,029,28,85,50,177,35*63
$GLGSV,3,3,10,67,11,357,22,86,02,198,*68
$GPGSA,A,3,02,06,12,14,24,25,29,,,,,,1.1,0.8,0.8*3A
$GPVTG,,T,,M,0.0,N,0.0,K,A*23
$GPRMC,060401,A,5220.011142,N,00924.818685,E,0.0,,170915,0.2,W,A*2A
$GPGGA,060401,5220.011142,N,00924.818685,E,1,07,0.8,80.0,M,46.0,M,,*73
$GPGSV,3,1,10,02,33,094,41,06,25,053,35,12,61,075,35,14,35,254,29*7A
$GPGSV,3,2,10,24,28,147,38,25,71,285,28,29,34,206,26,03,02,347,*75
$GPGSV,3,3,10,31,22,307,,32,00,000,*7F
$GLGSV,3,1,10,74,49,115,31,66,15,306,31,73,01,123,15,76,14,307,14*68
$GLGSV,3,2,10,75,68,324,36,84,62,063,34,83,14,029,28,85,50,177,35*63
$GLGSV,3,3,10,67,11,357,22,86,02,198,*68
$GPGSA,A,3,02,06,12,14,24,25,29,,,,,,1.1,0.8,0.8*3A
$GPVTG,,T,,M,0.0,N,0.0,K,A*23
$GPRMC,060401,A,5220.011142,N,00924.818685,E,0.0,,170915,0.2,W,A*2A
$GPGGA,060401,5220.011142,N,00924.818685,E,1,07,0.8,80.0,M,46.0,M,,*73
$GPGSV,3,1,10,02,33,094,41,06,25,053,35,12,61,075,35,14,35,254,28*7B
$GPGSV,3,2,10,24,28,147,38,25,71,285,29,29,34,206,26,03,02,347,*74
$GPGSV,3,3,10,31,22,307,,32,00,000,*7F
$GLGSV,3,1,10,74,49,115,31,66,15,306,30,73,01,123,16,76,14,307,14*6A
$GLGSV,3,2,10,75,68,324,37,84,62,063,34,83,14,029,28,85,50,177,35*62
$GLGSV,3,3,10,67,11,357,23,86,02,198,*69
$GPGSA,A,3,02,06,12,14,24,25,29,,,,,,1.1,0.8,0.8*3A
$GPVTG,,T,,M,0.0,N,0.0,K,A*23
$GPRMC,060402,A,5220.011213,N,00924.817809,E,0.0,,170915,0.2,W,A*2B
$GPGGA,060402,5220.011213,N,00924.817809,E,1,07,0.8,80.0,M,46.0,M,,*72
$GPGSV,3,1,10,02,33,094,41,06,25,053,35,12,61,075,35,14,35,254,28*7B
$GPGSV,3,2,10,24,28,147,38,25,71,285,29,29,34,206,26,03,02,347,*74
$GPGSV,3,3,10,31,22,307,,32,00,000,*7F
$GLGSV,3,1,10,74,49,115,31,66,15,306,30,73,01,123,16,76,14,307,14*6A
$GLGSV,3,2,10,75,68,324,37,84,62,063,34,83,14,029,28,85,50,177,35*62
$GLGSV,3,3,10,67,11,357,23,86,02,198,*69
$GPGSA,A,3,02,06,12,14,24,25,29,,,,,,1.1,0.8,0.8*3A
$GPVTG,,T,,M,0.0,N,0.0,K,A*23
$GPRMC,060402,A,5220.011213,N,00924.817809,E,0.0,,170915,0.2,W,A*2B
$GPGGA,060402,5220.011213,N,00924.817809,E,1,07,0.8,80.0,M,46.0,M,,*72
$GPGSV,3,1,10,02,33,094,41,06,25,053,35,12,61,075,35,14,35,254,28*7B
$GPGSV,3,2,10,24,28,147,38,25,71,285,30,29,34,206,26,03,02,347,*7C
$GPGSV,3,3,10,31,22,307,,32,00,000,*7F
$GLGSV,3,1,10,74,49,115,31,66,15,306,30,73,01,123,16,76,14,307,14*6A
$GLGSV,3,2,10,75,68,324,36,84,62,063,33,83,14,029,28,85,50,177,35*64
$GLGSV,3,3,10,67,11,357,23,86,02,198,*69
$GPGSA,A,3,02,06,12,14,24,25,29,,,,,,1.1,0.8,0.8*3A
$GPVTG,,T,,M,0.0,N,0.0,K,A*23
$GPRMC,060403,A,5220.011361,N,00924.817730,E,0.0,,170915,0.2,W,A*2B
$GPGGA,060403,5220.011361,N,00924.817730,E,1,07,0.8,80.0,M,46.0,M,,*72
$GPGSV,3,1,10,02,33,094,41,06,25,053,35,12,61,075,35,14,35,254,28*7B
$GPGSV,3,2,10,24,28,147,38,25,71,285,30,29,34,206,26,03,02,347,*7C
$GPGSV,3,3,10,31,22,307,,32,00,000,*7F
$GLGSV,3,1,10,74,49,115,31,66,15,306,30,73,01,123,16,76,14,307,14*6A
$GLGSV,3,2,10,75,68,324,36,84,62,063,33,83,14,029,28,85,50,177,35*64
$GLGSV,3,3,10,67,11,357,23,86,02,198,*69
$GPGSA,A,3,02,06,12,14,24,25,29,,,,,,1.1,0.8,0.8*3A
$GPVTG,,T,,M,0.0,N,0.0,K,A*23
$GPRMC,060403,A,5220.011361,N,00924.817730,E,0.0,,170915,0.2,W,A*2B
$GPGGA,060403,5220.011361,N,00924.817730,E,1,07,0.8,80.0,M,46.0,M,,*72
$GPGSV,3,1,10,02,33,094,41,06,25,053,35,12,61,075,35,14,35,254,29*7A
$GPGSV,3,2,10,24,28,147,38,25,71,285,30,29,34,206,26,03,02,347,*7C
$GPGSV,3,3,10,31,22,307,,32,00,000,*7F
$GLGSV,3,1,10,74,49,115,31,66,15,306,30,73,01,123,16,76,14,307,13*6D
$GLGSV,3,2,10,75,68,324,37,84,62,063,33,83,14,029,29,85,50,177,35*64
$GLGSV,3,3,10,67,11,357,23,86,02,198,*69
$GPGSA,A,3,02,06,12,14,24,25,29,,,,,,1.1,0.8,0.8*3A
$GPVTG,,T,,M,0.0,N,0.0,K,A*23
$GPRMC,060404,A,5220.011385,N,00924.817363,E,0.0,,170915,0.2,W,A*24
$GPGGA,060404,5220.011385,N,00924.817363,E,1,07,0.8,79.0,M,46.0,M,,*7B
$GPGSV,3,1,10,02,33,094,41,06,25,053,35,12,61,075,35,14,35,254,29*7A
$GPGSV,3,2,10,24,28,147,38,25,71,285,30,29,34,206,26,03,02,347,*7C
$GPGSV,3,3,10,31,22,307,,32,00,000,*7F
$GLGSV,3,1,10,74,49,115,31,66,15,306,30,73,01,123,16,76,14,307,13*6D
$GLGSV,3,2,10,75,68,324,37,84,62,063,33,83,14,029,29,85,50,177,35*64
$GLGSV,3,3,10,67,11,357,23,86,02,198,*69
$GPGSA,A,3,02,06,12,14,24,25,29,,,,,,1.1,0.8,0.8*3A
$GPVTG,,T,,M,0.0,N,0.0,K,A*23
$GPRMC,060404,A,5220.011385,N,00924.817363,E,0.0,,170915,0.2,W,A*24
$GPGGA,060404,5220.011385,N,00924.817363,E,1,07,0.8,79.0,M,46.0,M,,*7B
$GPGSV,3,1,10,02,33,094,41,06,25,053,35,12,61,075,35,14,35,254,28*7B
$GPGSV,3,2,10,24,28,147,38,25,71,285,30,29,34,206,26,03,02,347,*7C
$GPGSV,3,3,10,31,22,307,,32,00,000,*7F
$GLGSV,3,1,10,74,49,115,31,66,15,306,29,73,01,123,16,76,14,307,13*65
$GLGSV,3,2,10,75,68,324,36,84,62,063,33,83,14,029,28,85,50,177,35*64
$GLGSV,3,3,10,67,11,357,22,86,02,198,*68
$GPGSA,A,3,02,06,12,14,24,25,29,,,,,,1.1,0.8,0.8*3A
$GPVTG,,T,,M,0.0,N,0.0,K,A*23
$GPRMC,060405,A,5220.011370,N,00924.817372,E,0.0,,170915,0.2,W,A*2F
$GPGGA,060405,5220.011370,N,00924.817372,E,1,07,0.8,78.0,M,46.0,M,,*71
$GPGSV,3,1,10,02,33,094,41,06,25,053,35,12,61,075,35,14,35,254,28*7B
$GPGSV,3,2,10,24,28,147,38,25,71,285,30,29,34,206,26,03,02,347,*7C
$GPGSV,3,3,10,31,22,307,,32,00,000,*7F
$GLGSV,3,1,10,74,49,115,31,66,15,306,29,73,01,123,16,76,14,307,13*65
$GLGSV,3,2,10,75,68,324,36,84,62,063,33,83,14,029,28,85,50,177,35*64
$GLGSV,3,3,10,67,11,357,22,86,02,198,*68
$GPGSA,A,3,02,06,12,14,24,25,29,,,,,,1.1,0.8,0.8*3A
$GPVTG,,T,,M,0.0,N,0.0,K,A*23
$GPRMC,060405,A,5220.011370,N,00924.817372,E,0.0,,170915,0.2,W,A*2F
$GPGGA,060405,5220.011370,N,00924.817372,E,1,07,0.8,78.0,M,46.0,M,,*71
$GPGSV,3,1,10,02,33,094,41,06,25,053,36,12,61,075,34,14,35,254,29*78
$GPGSV,3,2,10,24,28,147,38,25,71,285,30,29,34,206,26,03,02,347,*7C
$GPGSV,3,3,10,31,22,307,,32,00,000,*7F
$GLGSV,3,1,10,74,49,115,31,66,15,306,30,73,01,123,16,76,14,307,13*6D
$GLGSV,3,2,10,75,68,324,37,84,62,063,33,83,14,029,28,85,50,177,35*65
$GLGSV,3,3,10,67,11,357,23,86,02,198,*69
$GPGSA,A,3,02,06,12,14,24,25,29,,,,,,1.1,0.8,0.8*3A
$GPVTG,,T,,M,0.0,N,0.0,K,A*23
$GPRMC,060406,A,5220.011491,N,00924.817504,E,0.0,,170915,0.2,W,A*23
$GPGGA,060406,5220.011491,N,00924.817504,E,1,07,0.8,78.0,M,46.0,M,,*7D
$GPGSV,3,1,10,02,33,094,41,06,25,053,36,12,61,075,34,14,35,254,29*78
$GPGSV,3,2,10,24,28,147,38,25,71,285,30,29,34,206,26,03,02,347,*7C
$GPGSV,3,3,10,31,22,307,,32,00,000,*7F
$GLGSV,3,1,10,74,49,115,31,66,15,306,30,73,01,123,16,76,14,307,13*6D
$GLGSV,3,2,10,75,68,324,37,84,62,063,33,83,14,029,28,85,50,177,35*65
$GLGSV,3,3,10,67,11,357,23,86,02,198,*69
$GPGSA,A,3,02,06,12,14,24,25,29,,,,,,1.1,0.8,0.8*3A
$GPVTG,,T,,M,0.0,N,0.0,K,A*23
$GPRMC,060406,A,5220.011491,N,00924.817504,E,0.0,,170915,0.2,W,A*23
$GPGGA,060406,5220.011491,N,00924.817504,E,1,07,0.8,78.0,M,46.0,M,,*7D
$GPGSV,3,1,10,02,33,094,41,06,25,053,35,12,61,075,34,14,35,254,29*7B
$GPGSV,3,1,10,02,33,094,41,06,25,053,35,12,61,075,34,14,35,254,29*7B
$GPGSV,3,2,10,24,28,147,38,25,71,285,30,29,34,206,27,03,02,347,*7D
$GPGSV,3,3,10,31,22,307,,32,00,000,*7F
$GLGSV,3,1,10,74,49,115,30,66,15,306,29,73,01,123,15,76,14,307,13*67
$GLGSV,3,2,10,75,68,324,37,84,62,063,33,83,14,029,28,85,50,177,35*65
$GLGSV,3,3,10,67,11,357,23,86,02,198,*69
$GPGSA,A,3,02,06,12,14,24,25,29,,,,,,1.1,0.8,0.8*3A
$GPVTG,,T,,M,0.0,N,0.0,K,A*23
$GPRMC,060407,A,5220.011392,N,00924.817534,E,0.0,,170915,0.2,W,A*25
$GPGGA,060407,5220.011392,N,00924.817534,E,1,07,0.8,78.0,M,46.0,M,,*7B
$GPGSV,3,2,10,24,28,147,38,25,71,285,30,29,34,206,27,03,02,347,*7D
$GPGSV,3,3,10,31,22,307,,32,00,000,*7F
$GLGSV,3,1,10,74,49,115,30,66,15,306,29,73,01,123,15,76,14,307,13*67
$GLGSV,3,2,10,75,68,324,37,84,62,063,33,83,14,029,28,85,50,177,35*65
$GLGSV,3,3,10,67,11,357,23,86,02,198,*69
$GPGSA,A,3,02,06,12,14,24,25,29,,,,,,1.1,0.8,0.8*3A
$GPVTG,,T,,M,0.0,N,0.0,K,A*23
$GPRMC,060407,A,5220.011392,N,00924.817534,E,0.0,,170915,0.2,W,A*25
$GPGGA,060407,5220.011392,N,00924.817534,E,1,07,0.8,78.0,M,46.0,M,,*7B
$GPGSV,3,1,10,02,33,094,41,06,25,053,35,12,61,075,34,14,35,254,29*7B
$GPGSV,3,2,10,24,28,147,38,25,71,285,30,29,34,206,27,03,02,347,*7D
$GPGSV,3,3,10,31,22,307,,32,00,000,*7F
$GLGSV,3,1,10,74,49,115,30,66,15,306,29,73,01,123,16,76,14,307,13*64
$GLGSV,3,2,10,75,68,324,37,84,62,063,33,83,14,029,28,85,50,177,35*65
$GLGSV,3,3,10,67,11,357,24,86,02,198,*6E
$GPGSA,A,3,02,06,12,14,24,25,29,,,,,,1.1,0.8,0.8*3A
$GPVTG,,T,,M,0.0,N,0.0,K,A*23
$GPRMC,060408,A,5220.011490,N,00924.817760,E,0.0,,170915,0.2,W,A*2C
$GPGGA,060408,5220.011490,N,00924.817760,E,1,07,0.8,78.0,M,46.0,M,,*72
$GPGSV,3,1,10,02,33,094,41,06,25,053,35,12,61,075,34,14,35,254,29*7B
$GPGSV,3,2,10,24,28,147,38,25,71,285,30,29,34,206,27,03,02,347,*7D
$GPGSV,3,3,10,31,22,307,,32,00,000,*7F
$GLGSV,3,1,10,74,49,115,30,66,15,306,29,73,01,123,16,76,14,307,13*64
$GLGSV,3,2,10,75,68,324,37,84,62,063,33,83,14,029,28,85,50,177,35*65
$GLGSV,3,3,10,67,11,357,24,86,02,198,*6E
$GPGSA,A,3,02,06,12,14,24,25,29,,,,,,1.1,0.8,0.8*3A
$GPVTG,,T,,M,0.0,N,0.0,K,A*23
$GPRMC,060408,A,5220.011490,N,00924.817760,E,0.0,,170915,0.2,W,A*2C
$GPGGA,060408,5220.011490,N,00924.817760,E,1,07,0.8,78.0,M,46.0,M,,*72
$GPGSV,3,1,10,02,33,094,41,06,25,053,36,12,61,075,34,14,35,254,29*78
$GPGSV,3,2,10,24,28,147,38,25,71,285,30,29,34,206,28,03,02,347,*72
$GPGSV,3,3,10,31,22,307,,32,00,000,*7F
$GLGSV,3,1,10,74,49,115,31,66,15,306,28,73,01,123,16,76,14,307,13*64
$GLGSV,3,2,10,75,68,324,37,84,62,063,33,83,14,029,28,85,50,177,35*65
$GLGSV,3,3,10,67,11,357,23,86,02,198,*69
$GPGSA,A,3,02,06,12,14,24,25,29,,,,,,1.1,0.8,0.8*3A
$GPVTG,,T,,M,0.0,N,0.0,K,A*23
$GPRMC,060409,A,5220.011510,N,00924.817873,E,0.0,,170915,0.2,W,A*29
$GPGGA,060409,5220.011510,N,00924.817873,E,1,07,0.8,78.0,M,46.0,M,,*77
$GPGSV,3,1,10,02,33,094,41,06,25,053,36,12,61,075,34,14,35,254,29*78
$GPGSV,3,2,10,24,28,147,38,25,71,285,30,29,34,206,28,03,02,347,*72
$GPGSV,3,3,10,31,22,307,,32,00,000,*7F
$GLGSV,3,1,10,74,49,115,31,66,15,306,28,73,01,123,16,76,14,307,13*64
$GLGSV,3,2,10,75,68,324,37,84,62,063,33,83,14,029,28,85,50,177,35*65
$GLGSV,3,3,10,67,11,357,23,86,02,198,*69
$GPGSA,A,3,02,06,12,14,24,25,29,,,,,,1.1,0.8,0.8*3A
$GPVTG,,T,,M,0.0,N,0.0,K,A*23
$GPRMC,060409,A,5220.011510,N,00924.817873,E,0.0,,170915,0.2,W,A*29
$GPGGA,060409,5220.011510,N,00924.817873,E,1,07,0.8,78.0,M,46.0,M,,*77
$GPGSV,3,1,10,02,33,094,41,06,25,053,35,12,61,075,34,14,35,254,28*7A
$GPGSV,3,2,10,24,28,147,38,25,71,285,30,29,34,206,28,03,02,347,*72
$GPGSV,3,3,10,31,22,307,,32,00,000,*7F
$GLGSV,3,1,10,74,49,115,31,66,15,306,29,73,01,123,16,76,14,307,13*65
$GLGSV,3,2,10,75,68,324,37,84,62,063,33,83,14,029,28,85,50,177,35*65
$GLGSV,3,3,10,67,11,357,24,86,02,198,*6E
$GPGSA,A,3,02,06,12,14,24,25,29,,,,,,1.1,0.8,0.8*3A
$GPVTG,,T,,M,0.0,N,0.0,K,A*23
$GPRMC,060410,A,5220.011542,N,00924.817902,E,0.0,,170915,0.2,W,A*21
$GPGGA,060410,5220.011542,N,00924.817902,E,1,07,0.8,78.0,M,46.0,M,,*7F
$GPGSV,3,1,10,02,33,094,41,06,25,053,35,12,61,075,34,14,35,254,28*7A
$GPGSV,3,2,10,24,28,147,38,25,71,285,30,29,34,206,28,03,02,347,*72
$GPGSV,3,3,10,31,22,307,,32,00,000,*7F
$GLGSV,3,1,10,74,49,115,31,66,15,306,29,73,01,123,16,76,14,307,13*65
$GLGSV,3,2,10,75,68,324,37,84,62,063,33,83,14,029,28,85,50,177,35*65
$GLGSV,3,3,10,67,11,357,24,86,02,198,*6E
$GPGSA,A,3,02,06,12,14,24,25,29,,,,,,1.1,0.8,0.8*3A
$GPVTG,,T,,M,0.0,N,0.0,K,A*23
$GPRMC,060410,A,5220.011542,N,00924.817902,E,0.0,,170915,0.2,W,A*21
$GPGGA,060410,5220.011542,N,00924.817902,E,1,07,0.8,78.0,M,46.0,M,,*7F
$GPGSV,3,1,10,02,33,094,40,06,25,053,31,12,61,075,37,14,35,254,32*77
$GPGSV,3,2,10,24,28,147,38,25,71,285,30,29,34,206,26,03,02,347,*7C
$GPGSV,3,3,10,31,22,307,,32,00,000,*7F
$GLGSV,3,1,10,74,49,115,28,66,15,306,26,73,01,123,16,76,14,307,13*62
$GLGSV,3,2,10,75,68,324,37,84,62,063,33,83,14,029,26,85,50,177,36*68
$GLGSV,3,3,10,67,11,357,25,86,02,198,*6F
$GPGSA,A,3,02,06,12,14,24,25,29,,,,,,1.1,0.8,0.8*3A
$GPVTG,,T,,M,0.0,N,0.0,K,A*23
$GPRMC,060411,A,5220.011550,N,00924.817880,E,0.0,,170915,0.2,W,A*28
$GPGGA,060411,5220.011550,N,00924.817880,E,1,07,0.8,78.0,M,46.0,M,,*76
$GPGSV,3,1,10,02,33,094,40,06,25,053,31,12,61,075,37,14,35,254,32*77
$GPGSV,3,2,10,24,28,147,38,25,71,285,30,29,34,206,26,03,02,347,*7C
$GPGSV,3,3,10,31,22,307,,32,00,000,*7F
$GLGSV,3,1,10,74,49,115,28,66,15,306,26,73,01,123,16,76,14,307,13*62
$GLGSV,3,2,10,75,68,324,37,84,62,063,33,83,14,029,26,85,50,177,36*68
$GLGSV,3,3,10,67,11,357,25,86,02,198,*6F
$GPGSA,A,3,02,06,12,14,24,25,29,,,,,,1.1,0.8,0.8*3A
$GPVTG,,T,,M,0.0,N,0.0,K,A*23
$GPRMC,060411,A,5220.011550,N,00924.817880,E,0.0,,170915,0.2,W,A*28
$GPGGA,060411,5220.011550,N,00924.817880,E,1,07,0.8,78.0,M,46.0,M,,*76
$GPGSV,3,1,10,02,33,094,40,06,25,053,29,12,61,075,35,14,35,254,32*7C
$GPGSV,3,2,10,24,28,147,38,25,71,285,34,29,34,206,30,31,22,307,19*70
$GPGSV,3,3,10,03,02,347,,32,00,000,*78
$GLGSV,3,1,10,74,49,115,24,66,15,306,26,73,01,123,16,76,14,307,16*6B
$GLGSV,3,2,10,75,68,324,36,84,62,063,32,83,14,029,28,85,50,177,34*64
$GLGSV,3,3,10,67,11,357,19,86,02,198,*60
$GPGSA,A,3,02,06,12,14,24,25,29,31,,,,,1.1,0.8,0.8*38
$GPVTG,,T,,M,0.0,N,0.0,K,A*23
$GPRMC,060412,A,5220.011550,N,00924.817885,E,0.0,,170915,0.2,W,A*2E
$GPGGA,060412,5220.011550,N,00924.817885,E,1,08,0.8,78.0,M,46.0,M,,*7F
$GPGSV,3,1,10,02,33,094,40,06,25,053,29,12,61,075,35,14,35,254,32*7C
$GPGSV,3,2,10,24,28,147,38,25,71,285,34,29,34,206,30,31,22,307,19*70
$GPGSV,3,3,10,03,02,347,,32,00,000,*78
$GLGSV,3,1,10,74,49,115,24,66,15,306,26,73,01,123,16,76,14,307,16*6B
$GLGSV,3,2,10,75,68,324,36,84,62,063,32,83,14,029,28,85,50,177,34*64
$GLGSV,3,3,10,67,11,357,19,86,02,198,*60
$GPGSA,A,3,02,06,12,14,24,25,29,31,,,,,1.1,0.8,0.8*38
$GPVTG,,T,,M,0.0,N,0.0,K,A*23
$GPRMC,060412,A,5220.011550,N,00924.817885,E,0.0,,170915,0.2,W,A*2E
$GPGGA,060412,5220.011550,N,00924.817885,E,1,08,0.8,78.0,M,46.0,M,,*7F
$GPGSV,3,1,10,02,33,094,39,12,61,075,36,14,35,254,34,24,28,147,38*7E
$GPGSV,3,2,10,25,71,285,34,29,34,206,33,31,22,307,17,03,02,347,*79
$GPGSV,3,3,10,06,25,053,,32,00,000,*7E
$GLGSV,3,1,10,74,49,115,21,66,15,306,29,73,01,123,16,76,14,307,20*64
$GLGSV,3,2,10,75,68,324,36,84,62,063,33,83,14,029,24,85,50,177,35*68
$GLGSV,3,3,10,67,11,357,23,86,02,198,*69
$GPGSA,A,3,02,12,14,24,25,29,31,,,,,,1.1,0.8,0.8*3E
$GPVTG,,T,,M,0.0,N,0.0,K,A*23
$GPRMC,060413,A,5220.011550,N,00924.817892,E,0.0,,170915,0.2,W,A*29
$GPGGA,060413,5220.011550,N,00924.817892,E,1,07,0.8,78.0,M,46.0,M,,*77
$GPGSV,3,1,10,02,33,094,39,12,61,075,36,14,35,254,34,24,28,147,38*7E
$GPGSV,3,2,10,25,71,285,34,29,34,206,33,31,22,307,17,03,02,347,*79
$GPGSV,3,3,10,06,25,053,,32,00,000,*7E
$GLGSV,3,1,10,74,49,115,21,66,15,306,29,73,01,123,16,76,14,307,20*64
$GLGSV,3,2,10,75,68,324,36,84,62,063,33,83,14,029,24,85,50,177,35*68
$GLGSV,3,3,10,67,11,357,23,86,02,198,*69
$GPGSA,A,3,02,12,14,24,25,29,31,,,,,,1.1,0.8,0.8*3E
$GPVTG,,T,,M,0.0,N,0.0,K,A*23
$GPRMC,060413,A,5220.011550,N,00924.817892,E,0.0,,170915,0.2,W,A*29
$GPGGA,060413,5220.011550,N,00924.817892,E,1,07,0.8,78.0,M,46.0,M,,*77
$GPGSV,3,1,10,02,33,094,39,12,61,075,38,14,35,254,34,24,28,147,39*71
$GPGSV,3,2,10,25,71,285,32,29,34,206,32,03,02,347,,06,25,053,*79
$GPGSV,3,3,10,31,22,307,,32,00,000,*7F
$GLGSV,3,1,10,74,49,115,24,66,15,306,29,73,01,123,16,76,14,307,23*62
$GLGSV,3,2,10,75,68,324,38,84,62,063,33,83,14,029,31,85,50,177,36*61
$GLGSV,3,3,10,67,11,357,24,86,02,198,*6E
$GPGSA,A,3,02,12,14,24,25,29,,,,,,,1.1,0.8,0.8*3C
$GPVTG,,T,,M,0.0,N,0.0,K,A*23
$GPRMC,060414,A,5220.011553,N,00924.817900,E,0.0,,170915,0.2,W,A*27
$GPGGA,060414,5220.011553,N,00924.817900,E,1,06,0.8,78.0,M,46.0,M,,*78
$GPGSV,3,1,10,02,33,094,39,12,61,075,38,14,35,254,34,24,28,147,39*71
$GPGSV,3,2,10,25,71,285,32,29,34,206,32,03,02,347,,06,25,053,*79
$GPGSV,3,3,10,31,22,307,,32,00,000,*7F
$GLGSV,3,1,10,74,49,115,24,66,15,306,29,73,01,123,16,76,14,307,23*62
$GLGSV,3,2,10,75,68,324,38,84,62,063,33,83,14,029,31,85,50,177,36*61
$GLGSV,3,3,10,67,11,357,24,86,02,198,*6E
$GPGSA,A,3,02,12,14,24,25,29,,,,,,,1.1,0.8,0.8*3C
$GPVTG,,T,,M,0.0,N,0.0,K,A*23
$GPRMC,060414,A,5220.011553,N,00924.817900,E,0.0,,170915,0.2,W,A*27
$GPGGA,060414,5220.011553,N,00924.817900,E,1,06,0.8,78.0,M,46.0,M,,*78
$GPGSV,3,1,10,02,33,094,38,12,61,075,35,14,35,254,35,24,28,147,39*7C
$GPGSV,3,2,10,25,71,285,34,29,34,206,32,31,22,307,21,03,02,347,*7D
$GPGSV,3,3,10,06,25,053,,32,00,000,*7E
$GLGSV,3,1,10,74,49,115,24,66,15,306,28,73,01,123,16,76,14,307,18*6B
$GLGSV,3,2,10,75,68,324,37,84,62,063,33,83,14,029,28,85,50,177,37*67
$GLGSV,3,3,10,67,11,357,23,86,02,198,*69
$GPGSA,A,3,02,12,14,24,25,29,31,,,,,,1.1,0.8,0.8*3E
$GPVTG,,T,,M,0.0,N,0.0,K,A*23
$GPRMC,060415,A,5220.011555,N,00924.817918,E,0.0,,170915,0.2,W,A*29
$GPGGA,060415,5220.011555,N,00924.817918,E,1,07,0.8,78.0,M,46.0,M,,*77
$GPGSV,3,1,10,02,33,094,38,12,61,075,35,14,35,254,35,24,28,147,39*7C
$GPGSV,3,2,10,25,71,285,34,29,34,206,32,31,22,307,21,03,02,347,*7D
$GPGSV,3,3,10,06,25,053,,32,00,000,*7E
$GLGSV,3,1,10,74,49,115,24,66,15,306,28,73,01,123,16,76,14,307,18*6B
$GLGSV,3,2,10,75,68,324,37,84,62,063,33,83,14,029,28,85,50,177,37*67
$GLGSV,3,3,10,67,11,357,23,86,02,198,*69
$GPGSA,A,3,02,12,14,24,25,29,31,,,,,,1.1,0.8,0.8*3E
$GPVTG,,T,,M,0.0,N,0.0,K,A*23
$GPRMC,060415,A,5220.011555,N,00924.817918,E,0.0,,170915,0.2,W,A*29
$GPGGA,060415,5220.011555,N,00924.817918,E,1,07,0.8,78.0,M,46.0,M,,*77
$GPGSV,3,1,10,02,33,094,39,06,25,053,32,12,61,075,36,14,35,254,32*7B
$GPGSV,3,2,10,24,28,147,39,25,71,285,32,29,34,206,31,03,02,347,*79
$GPGSV,3,3,10,31,22,307,,32,00,000,*7F
$GLGSV,3,1,10,74,49,115,27,66,15,306,27,73,01,123,16,76,14,307,21*6D
$GLGSV,3,2,10,75,68,324,37,84,62,063,32,83,14,029,22,85,50,177,34*6F
$GLGSV,3,3,10,67,11,357,27,86,02,198,*6D
$GPGSA,A,3,02,06,12,14,24,25,29,,,,,,1.1,0.7,0.8*35
$GPVTG,,T,,M,0.0,N,0.0,K,A*23
$GPRMC,060416,A,5220.011558,N,00924.817947,E,0.0,,170915,0.2,W,A*2D
$GPGGA,060416,5220.011558,N,00924.817947,E,1,07,0.7,78.0,M,46.0,M,,*7C
$GPGSV,3,1,10,02,33,094,39,06,25,053,32,12,61,075,36,14,35,254,32*7B
$GPGSV,3,2,10,24,28,147,39,25,71,285,32,29,34,206,31,03,02,347,*79
$GPGSV,3,3,10,31,22,307,,32,00,000,*7F
$GLGSV,3,1,10,74,49,115,27,66,15,306,27,73,01,123,16,76,14,307,21*6D
$GLGSV,3,2,10,75,68,324,37,84,62,063,32,83,14,029,22,85,50,177,34*6F
$GLGSV,3,3,10,67,11,357,27,86,02,198,*6D
$GPGSA,A,3,02,06,12,14,24,25,29,,,,,,1.1,0.7,0.8*35
$GPVTG,,T,,M,0.0,N,0.0,K,A*23
$GPRMC,060416,A,5220.011558,N,00924.817947,E,0.0,,170915,0.2,W,A*2D
$GPGGA,060416,5220.011558,N,00924.817947,E,1,07,0.7,78.0,M,46.0,M,,*7C
$GPGSV,3,1,10,02,33,094,41,06,25,053,34,12,61,075,37,14,35,254,33*72
$GPGSV,3,2,10,24,28,147,40,25,71,285,32,29,34,206,35,03,02,347,*73
$GPGSV,3,3,10,31,22,307,,32,00,000,*7F
$GLGSV,3,1,10,74,49,115,28,66,15,306,27,73,01,123,16,76,14,307,22*61
$GPGSV,3,1,10,02,33,094,41,06,25,053,34,12,61,075,37,14,35,254,33*72
$GPGSV,3,2,10,24,28,147,40,25,71,285,32,29,34,206,35,03,02,347,*73
$GPGSV,3,3,10,31,22,307,,32,00,000,*7F
$GLGSV,3,1,10,74,49,115,28,66,15,306,27,73,01,123,16,76,14,307,22*61
$GLGSV,3,2,10,75,68,324,37,84,62,063,32,83,14,029,29,85,50,177,37*67
$GLGSV,3,3,10,67,11,357,26,86,02,198,*6C
$GPGSA,A,3,02,06,12,14,24,25,29,,,,,,1.1,0.7,0.8*35
$GPVTG,,T,,M,0.0,N,0.0,K,A*23
$GPRMC,060417,A,5220.011562,N,00924.817973,E,0.0,,170915,0.2,W,A*22
$GPGGA,060417,5220.011562,N,00924.817973,E,1,07,0.7,78.0,M,46.0,M,,*73
$GLGSV,3,2,10,75,68,324,37,84,62,063,32,83,14,029,29,85,50,177,37*67
$GLGSV,3,3,10,67,11,357,26,86,02,198,*6C
$GPGSA,A,3,02,06,12,14,24,25,29,,,,,,1.1,0.7,0.8*35
$GPVTG,,T,,M,0.0,N,0.0,K,A*23
$GPRMC,060417,A,5220.011562,N,00924.817973,E,0.0,,170915,0.2,W,A*22
$GPGGA,060417,5220.011562,N,00924.817973,E,1,07,0.7,78.0,M,46.0,M,,*73
$GPGSV,3,1,10,02,33,094,41,06,25,053,32,12,61,075,38,14,35,254,33*7B
$GPGSV,3,2,10,24,28,147,39,25,71,285,31,29,34,206,34,31,22,307,21*7B
$GPGSV,3,3,10,03,02,347,,32,00,000,*78
$GLGSV,3,1,10,74,49,115,25,66,15,306,30,73,01,123,16,76,14,307,22*6A
$GLGSV,3,2,10,75,68,324,37,84,62,063,32,83,14,029,27,85,50,177,37*69
$GLGSV,3,3,10,67,11,357,26,86,02,198,*6C
$GPGSA,A,3,02,06,12,14,24,25,29,31,,,,,1.0,0.7,0.8*36
$GPVTG,,T,,M,0.0,N,0.0,K,A*23
$GPRMC,060418,A,5220.011561,N,00924.818002,E,0.0,,170915,0.2,W,A*2E
$GPGGA,060418,5220.011561,N,00924.818002,E,1,08,0.7,78.0,M,46.0,M,,*70
$GPGSV,3,1,10,02,33,094,41,06,25,053,32,12,61,075,38,14,35,254,33*7B
$GPGSV,3,2,10,24,28,147,39,25,71,285,31,29,34,206,34,31,22,307,21*7B
$GPGSV,3,3,10,03,02,347,,32,00,000,*78
$GLGSV,3,1,10,74,49,115,25,66,15,306,30,73,01,123,16,76,14,307,22*6A
$GLGSV,3,2,10,75,68,324,37,84,62,063,32,83,14,029,27,85,50,177,37*69
$GLGSV,3,3,10,67,11,357,26,86,02,198,*6C
$GPGSA,A,3,02,06,12,14,24,25,29,31,,,,,1.0,0.7,0.8*36
$GPVTG,,T,,M,0.0,N,0.0,K,A*23
$GPRMC,060418,A,5220.011561,N,00924.818002,E,0.0,,170915,0.2,W,A*2E
$GPGGA,060418,5220.011561,N,00924.818002,E,1,08,0.7,78.0,M,46.0,M,,*70
$GPGSV,3,1,10,02,33,094,41,06,25,053,32,12,61,075,37,14,35,254,34*73
$GPGSV,3,2,10,24,28,147,39,25,71,285,29,29,34,206,34,31,22,307,23*70
$GPGSV,3,3,10,03,02,347,,32,00,000,*78
$GLGSV,3,1,10,74,49,115,25,66,15,306,30,73,01,123,16,76,14,307,23*6B
$GLGSV,3,2,10,75,68,324,36,84,62,063,32,83,14,029,25,85,50,177,37*6A
$GLGSV,3,3,10,67,11,357,25,86,02,198,*6F
$GPGSA,A,3,02,06,12,14,24,25,29,31,,,,,1.0,0.7,0.8*36
$GPVTG,,T,,M,0.0,N,0.0,K,A*23
$GPRMC,060419,A,5220.011559,N,00924.818036,E,0.0,,170915,0.2,W,A*23
$GPGGA,060419,5220.011559,N,00924.818036,E,1,08,0.7,78.0,M,46.0,M,,*7D
$GPGSV,3,1,10,02,33,094,41,06,25,053,32,12,61,075,37,14,35,254,34*73
$GPGSV,3,2,10,24,28,147,39,25,71,285,29,29,34,206,34,31,22,307,23*70
$GPGSV,3,3,10,03,02,347,,32,00,000,*78
$GLGSV,3,1,10,74,49,115,25,66,15,306,30,73,01,123,16,76,14,307,23*6B
$GLGSV,3,2,10,75,68,324,36,84,62,063,32,83,14,029,25,85,50,177,37*6A
$GLGSV,3,3,10,67,11,357,25,86,02,198,*6F
$GPGSA,A,3,02,06,12,14,24,25,29,31,,,,,1.0,0.7,0.8*36
$GPVTG,,T,,M,0.0,N,0.0,K,A*23
$GPRMC,060419,A,5220.011559,N,00924.818036,E,0.0,,170915,0.2,W,A*23
$GPGGA,060419,5220.011559,N,00924.818036,E,1,08,0.7,78.0,M,46.0,M,,*7D
$GPGSV,3,1,10,02,33,094,40,06,25,053,28,12,61,075,38,14,35,254,32*70
$GPGSV,3,2,10,24,28,147,39,25,71,285,28,29,34,206,32,31,22,307,22*76
$GPGSV,3,3,10,03,02,347,,32,00,000,*78
$GLGSV,3,1,10,74,49,115,25,66,15,306,30,73,01,123,16,76,14,307,22*6A
$GLGSV,3,2,10,75,68,324,33,84,62,063,32,83,14,029,27,85,50,177,36*6C
$GLGSV,3,3,10,67,11,357,27,86,02,198,*6D
$GPGSA,A,3,02,06,12,14,24,25,29,31,,,,,1.0,0.7,0.8*36
$GPVTG,,T,,M,0.0,N,0.0,K,A*23
$GPRMC,060420,A,5220.011563,N,00924.818050,E,0.0,,170915,0.2,W,A*20
$GPGGA,060420,5220.011563,N,00924.818050,E,1,08,0.7,78.0,M,46.0,M,,*7E
$GPGSV,3,1,10,02,33,094,40,06,25,053,28,12,61,075,38,14,35,254,32*70
$GPGSV,3,2,10,24,28,147,39,25,71,285,28,29,34,206,32,31,22,307,22*76
$GPGSV,3,3,10,03,02,347,,32,00,000,*78
$GLGSV,3,1,10,74,49,115,25,66,15,306,30,73,01,123,16,76,14,307,22*6A
$GLGSV,3,2,10,75,68,324,33,84,62,063,32,83,14,029,27,85,50,177,36*6C
$GLGSV,3,3,10,67,11,357,27,86,02,198,*6D
$GPGSA,A,3,02,06,12,14,24,25,29,31,,,,,1.0,0.7,0.8*36
$GPVTG,,T,,M,0.0,N,0.0,K,A*23
$GPRMC,060420,A,5220.011563,N,00924.818050,E,0.0,,170915,0.2,W,A*20
$GPGGA,060420,5220.011563,N,00924.818050,E,1,08,0.7,78.0,M,46.0,M,,*7E
$GPGSV,3,1,10,02,33,094,40,06,25,053,35,12,61,075,39,14,35,254,35*7A
$GPGSV,3,2,10,24,28,147,40,25,71,285,26,29,34,206,28,31,22,307,25*7A
$GPGSV,3,3,10,03,02,347,,32,00,000,*78
$GLGSV,3,1,10,74,49,115,25,66,15,306,29,73,01,123,16,76,14,307,18*6B
$GLGSV,3,2,10,75,68,324,35,84,62,063,31,83,14,029,26,85,50,177,38*66
$GLGSV,3,3,10,67,11,357,28,86,02,198,*62
$GPGSA,A,3,02,06,12,14,24,25,29,31,,,,,1.1,0.7,0.8*37
$GPVTG,119.4,T,119.4,M,0.6,N,1.2,K,A*26
$GPRMC,060421,A,5220.011723,N,00924.818260,E,0.6,119.4,170915,0.2,W,A*03
$GPGGA,060421,5220.011723,N,00924.818260,E,1,08,0.7,78.0,M,46.0,M,,*78
$GPGSV,3,1,10,02,33,094,40,06,25,053,35,12,61,075,39,14,35,254,35*7A
$GPGSV,3,2,10,24,28,147,40,25,71,285,26,29,34,206,28,31,22,307,25*7A
$GPGSV,3,3,10,03,02,347,,32,00,000,*78
$GLGSV,3,1,10,74,49,115,25,66,15,306,29,73,01,123,16,76,14,307,18*6B
$GLGSV,3,2,10,75,68,324,35,84,62,063,31,83,14,029,26,85,50,177,38*66
$GLGSV,3,3,10,67,11,357,28,86,02,198,*62
$GPGSA,A,3,02,06,12,14,24,25,29,31,,,,,1.1,0.7,0.8*37
$GPVTG,119.4,T,119.4,M,0.6,N,1.2,K,A*26
$GPRMC,060421,A,5220.011723,N,00924.818260,E,0.6,119.4,170915,0.2,W,A*03
$GPGGA,060421,5220.011723,N,00924.818260,E,1,08,0.7,78.0,M,46.0,M,,*78
$GPGSV,3,1,10,02,33,094,39,06,25,053,35,12,61,075,39,14,35,254,36*77
$GPGSV,3,2,10,24,28,147,39,25,71,285,28,29,34,206,29,31,22,307,24*7A
$GPGSV,3,3,10,03,02,347,,32,00,000,*78
$GLGSV,3,1,10,74,49,115,29,66,15,306,26,73,01,123,16,76,14,307,24*67
$GLGSV,3,2,10,75,68,324,32,84,62,063,31,83,14,029,29,85,50,177,36*60
$GLGSV,3,3,10,67,11,357,27,86,02,198,*6D
$GPGSA,A,3,02,06,12,14,24,25,29,31,,,,,1.0,0.7,0.8*36
$GPVTG,119.3,T,119.3,M,1.3,N,2.4,K,A*27
$GPRMC,060422,A,5220.011624,N,00924.818984,E,1.3,119.3,170915,0.2,W,A*04
$GPGGA,060422,5220.011624,N,00924.818984,E,1,08,0.7,78.0,M,46.0,M,,*7C
$GPGSV,3,1,10,02,33,094,39,06,25,053,35,12,61,075,39,14,35,254,36*77
$GPGSV,3,2,10,24,28,147,39,25,71,285,28,29,34,206,29,31,22,307,24*7A
$GPGSV,3,3,10,03,02,347,,32,00,000,*78
$GLGSV,3,1,10,74,49,115,29,66,15,306,26,73,01,123,16,76,14,307,24*67
$GLGSV,3,2,10,75,68,324,32,84,62,063,31,83,14,029,29,85,50,177,36*60
$GLGSV,3,3,10,67,11,357,27,86,02,198,*6D
$GPGSA,A,3,02,06,12,14,24,25,29,31,,,,,1.0,0.7,0.8*36
$GPVTG,119.3,T,119.3,M,1.3,N,2.4,K,A*27
$GPRMC,060422,A,5220.011624,N,00924.818984,E,1.3,119.3,170915,0.2,W,A*04
$GPGGA,060422,5220.011624,N,00924.818984,E,1,08,0.7,78.0,M,46.0,M,,*7C
$GPGSV,3,1,10,02,33,094,37,06,25,053,36,12,61,075,37,14,35,254,37*75
$GPGSV,3,2,10,24,28,147,37,25,71,285,27,29,34,206,32,31,22,307,30*74
$GPGSV,3,3,10,03,02,347,,32,00,000,*78
$GLGSV,3,1,10,74,49,115,31,66,15,306,28,73,01,123,16,76,14,307,25*61
$GLGSV,3,2,10,75,68,324,33,84,62,063,33,83,14,029,28,85,50,177,36*62
$GLGSV,3,3,10,67,11,357,32,86,02,198,*69
$GPGSA,A,3,02,06,12,14,24,25,29,31,,,,,1.0,0.7,0.8*36
$GPVTG,119.1,T,119.1,M,2.2,N,4.1,K,A*26
$GPRMC,060423,A,5220.011823,N,00924.819553,E,2.2,119.1,170915,0.2,W,A*0B
$GPGGA,060423,5220.011823,N,00924.819553,E,1,08,0.7,78.0,M,46.0,M,,*73
$GPGSV,3,1,10,02,33,094,37,06,25,053,36,12,61,075,37,14,35,254,37*75
$GPGSV,3,2,10,24,28,147,37,25,71,285,27,29,34,206,32,31,22,307,30*74
$GPGSV,3,3,10,03,02,347,,32,00,000,*78
$GLGSV,3,1,10,74,49,115,31,66,15,306,28,73,01,123,16,76,14,307,25*61
$GLGSV,3,2,10,75,68,324,33,84,62,063,33,83,14,029,28,85,50,177,36*62
$GLGSV,3,3,10,67,11,357,32,86,02,198,*69
$GPGSA,A,3,02,06,12,14,24,25,29,31,,,,,1.0,0.7,0.8*36
$GPVTG,119.1,T,119.1,M,2.2,N,4.1,K,A*26
$GPRMC,060423,A,5220.011823,N,00924.819553,E,2.2,119.1,170915,0.2,W,A*0B
$GPGGA,060423,5220.011823,N,00924.819553,E,1,08,0.7,78.0,M,46.0,M,,*73
$GPGSV,3,1,10,02,33,094,35,06,25,053,34,12,61,075,34,14,35,254,38*79
$GPGSV,3,1,10,02,33,094,35,06,25,053,34,12,61,075,34,14,35,254,38*79
$GPGSV,3,2,10,24,28,147,36,25,71,285,32,29,34,206,36,31,22,307,30*75
$GPGSV,3,3,10,03,02,347,,32,00,000,*78
$GLGSV,3,1,10,74,49,115,32,66,15,306,26,73,01,123,16,76,14,307,20*69
$GLGSV,3,2,10,75,68,324,32,84,62,063,33,83,14,029,31,85,50,177,38*65
$GLGSV,3,3,10,67,11,357,31,86,02,198,*6A
$GPGSA,A,3,02,06,12,14,24,25,29,31,,,,,1.1,0.7,0.8*37
$GPVTG,93.6,T,93.6,M,2.7,N,5.0,K,A*23
$GPRMC,060424,A,5220.011931,N,00924.820876,E,2.7,93.6,170915,0.2,W,A*3F
$GPGGA,060424,5220.011931,N,00924.820876,E,1,08,0.7,77.0,M,46.0,M,,*79
$GPGSV,3,2,10,24,28,147,36,25,71,285,32,29,34,206,36,31,22,307,30*75
$GPGSV,3,3,10,03,02,347,,32,00,000,*78
$GLGSV,3,1,10,74,49,115,32,66,15,306,26,73,01,123,16,76,14,307,20*69
$GLGSV,3,2,10,75,68,324,32,84,62,063,33,83,14,029,31,85,50,177,38*65
$GLGSV,3,3,10,67,11,357,31,86,02,198,*6A
$GPGSA,A,3,02,06,12,14,24,25,29,31,,,,,1.1,0.7,0.8*37
$GPVTG,93.6,T,93.6,M,2.7,N,5.0,K,A*23
$GPRMC,060424,A,5220.011931,N,00924.820876,E,2.7,93.6,170915,0.2,W,A*3F
$GPGGA,060424,5220.011931,N,00924.820876,E,1,08,0.7,77.0,M,46.0,M,,*79
$GPGSV,3,1,10,02,33,094,40,06,25,053,34,12,61,075,38,14,35,254,31*7E
$GPGSV,3,2,10,24,28,147,33,25,71,285,36,29,34,206,41,31,22,307,30*74
$GPGSV,3,3,10,03,02,347,,32,00,000,*78
$GLGSV,3,1,10,74,49,115,33,66,15,306,27,73,01,123,16,76,14,307,22*6B
$GLGSV,3,2,10,75,68,324,37,84,62,063,29,83,14,029,36,85,50,177,42*61
$GLGSV,3,3,10,67,11,357,28,86,02,198,*62
$GPGSA,A,3,02,06,12,14,24,25,29,31,,,,,1.0,0.7,0.8*36
$GPVTG,64.3,T,64.3,M,3.8,N,6.9,K,A*27
$GPRMC,060425,A,5220.012413,N,00924.822459,E,3.8,64.3,170915,0.2,W,A*30
$GPGGA,060425,5220.012413,N,00924.822459,E,1,08,0.7,78.0,M,46.0,M,,*7A
$GPGSV,3,1,10,02,33,094,40,06,25,053,34,12,61,075,38,14,35,254,31*7E
$GPGSV,3,2,10,24,28,147,33,25,71,285,36,29,34,206,41,31,22,307,30*74
$GPGSV,3,3,10,03,02,347,,32,00,000,*78
$GLGSV,3,1,10,74,49,115,33,66,15,306,27,73,01,123,16,76,14,307,22*6B
$GLGSV,3,2,10,75,68,324,37,84,62,063,29,83,14,029,36,85,50,177,42*61
$GLGSV,3,3,10,67,11,357,28,86,02,198,*62
$GPGSA,A,3,02,06,12,14,24,25,29,31,,,,,1.0,0.7,0.8*36
$GPVTG,64.3,T,64.3,M,3.8,N,6.9,K,A*27
$GPRMC,060425,A,5220.012413,N,00924.822459,E,3.8,64.3,170915,0.2,W,A*30
$GPGGA,060425,5220.012413,N,00924.822459,E,1,08,0.7,78.0,M,46.0,M,,*7A
$GPGSV,3,1,10,02,33,094,35,06,25,053,38,12,61,075,31,14,35,254,32*7A
$GPGSV,3,2,10,24,28,147,33,25,71,285,34,29,34,206,37,31,22,307,34*73
$GPGSV,3,3,10,03,02,347,,32,00,000,*78
$GLGSV,3,1,10,74,49,115,37,66,15,306,31,73,01,123,16,76,14,307,26*6C
$GLGSV,3,2,10,75,68,324,33,84,62,063,33,83,14,029,28,85,50,177,41*62
$GLGSV,3,3,10,67,11,357,33,86,02,198,*68
$GPGSA,A,3,02,06,12,14,24,25,29,31,,,,,1.0,0.7,0.8*36
$GPVTG,44.6,T,44.6,M,3.6,N,6.6,K,A*26
$GPRMC,060426,A,5220.013220,N,00924.823862,E,3.6,44.6,170915,0.2,W,A*38
$GPGGA,060426,5220.013220,N,00924.823862,E,1,08,0.7,77.0,M,46.0,M,,*74
$GPGSV,3,1,10,02,33,094,35,06,25,053,38,12,61,075,31,14,35,254,32*7A
$GPGSV,3,2,10,24,28,147,33,25,71,285,34,29,34,206,37,31,22,307,34*73
$GPGSV,3,3,10,03,02,347,,32,00,000,*78
$GLGSV,3,1,10,74,49,115,37,66,15,306,31,73,01,123,16,76,14,307,26*6C
$GLGSV,3,2,10,75,68,324,33,84,62,063,33,83,14,029,28,85,50,177,41*62
$GLGSV,3,3,10,67,11,357,33,86,02,198,*68
$GPGSA,A,3,02,06,12,14,24,25,29,31,,,,,1.0,0.7,0.8*36
$GPVTG,44.6,T,44.6,M,3.6,N,6.6,K,A*26
$GPRMC,060426,A,5220.013220,N,00924.823862,E,3.6,44.6,170915,0.2,W,A*38
$GPGGA,060426,5220.013220,N,00924.823862,E,1,08,0.7,77.0,M,46.0,M,,*74
$GPGSV,3,1,10,02,33,094,37,06,25,053,39,12,61,075,32,14,35,254,31*79
$GPGSV,3,2,10,24,28,147,38,25,71,285,37,29,34,206,31,31,22,307,30*79
$GPGSV,3,3,10,03,02,347,,32,00,000,*78
$GLGSV,3,1,10,74,49,115,38,66,15,306,26,73,01,123,16,76,14,307,24*67
$GLGSV,3,2,10,75,68,324,33,84,62,063,29,83,14,029,33,85,50,177,34*61
$GLGSV,3,3,10,67,11,357,26,86,02,198,*6C
$GPGSA,A,3,02,06,12,14,24,25,29,31,,,,,1.0,0.7,0.8*36
$GPVTG,23.6,T,23.6,M,4.2,N,7.8,K,A*2A
$GPRMC,060427,A,5220.014610,N,00924.824563,E,4.2,23.6,170915,0.2,W,A*30
$GPGGA,060427,5220.014610,N,00924.824563,E,1,08,0.7,77.0,M,46.0,M,,*7E
$GPGSV,3,1,10,02,33,094,37,06,25,053,39,12,61,075,32,14,35,254,31*79
$GPGSV,3,2,10,24,28,147,38,25,71,285,37,29,34,206,31,31,22,307,30*79
$GPGSV,3,3,10,03,02,347,,32,00,000,*78
$GLGSV,3,1,10,74,49,115,38,66,15,306,26,73,01,123,16,76,14,307,24*67
$GLGSV,3,2,10,75,68,324,33,84,62,063,29,83,14,029,33,85,50,177,34*61
$GLGSV,3,3,10,67,11,357,26,86,02,198,*6C
$GPGSA,A,3,02,06,12,14,24,25,29,31,,,,,1.0,0.7,0.8*36
$GPVTG,23.6,T,23.6,M,4.2,N,7.8,K,A*2A
$GPRMC,060427,A,5220.014610,N,00924.824563,E,4.2,23.6,170915,0.2,W,A*30
$GPGGA,060427,5220.014610,N,00924.824563,E,1,08,0.7,77.0,M,46.0,M,,*7E
$GPGSV,3,1,10,02,33,094,33,06,25,053,39,12,61,075,25,14,35,254,34*7E
$GPGSV,3,2,10,24,28,147,32,25,71,285,39,29,34,206,27,31,22,307,29*72
$GPGSV,3,3,10,03,02,347,,32,00,000,*78
$GLGSV,3,1,10,74,49,115,42,66,15,306,30,73,01,123,16,76,14,307,23*6A
$GLGSV,3,2,10,75,68,324,35,84,62,063,30,83,14,029,37,85,50,177,35*6A
$GLGSV,3,3,10,67,11,357,24,86,02,198,*6E
$GPGSA,A,3,02,06,12,14,24,25,29,31,,,,,1.0,0.7,0.8*36
$GPVTG,26.6,T,26.6,M,5.0,N,9.3,K,A*2C
$GPRMC,060428,A,5220.016275,N,00924.825587,E,5.0,26.6,170915,0.2,W,A*37
$GPGGA,060428,5220.016275,N,00924.825587,E,1,08,0.7,77.0,M,46.0,M,,*7F
$GPGSV,3,1,10,02,33,094,33,06,25,053,39,12,61,075,25,14,35,254,34*7E
$GPGSV,3,2,10,24,28,147,32,25,71,285,39,29,34,206,27,31,22,307,29*72
$GPGSV,3,3,10,03,02,347,,32,00,000,*78
$GLGSV,3,1,10,74,49,115,42,66,15,306,30,73,01,123,16,76,14,307,23*6A
$GLGSV,3,2,10,75,68,324,35,84,62,063,30,83,14,029,37,85,50,177,35*6A
$GLGSV,3,3,10,67,11,357,24,86,02,198,*6E
$GPGSA,A,3,02,06,12,14,24,25,29,31,,,,,1.0,0.7,0.8*36
$GPVTG,26.6,T,26.6,M,5.0,N,9.3,K,A*2C
$GPRMC,060428,A,5220.016275,N,00924.825587,E,5.0,26.6,170915,0.2,W,A*37
$GPGGA,060428,5220.016275,N,00924.825587,E,1,08,0.7,77.0,M,46.0,M,,*7F
$GPGSV,3,1,10,02,33,094,31,06,25,053,38,12,61,075,27,14,35,254,32*79
$GPGSV,3,1,10,02,33,094,31,06,25,053,38,12,61,075,27,14,35,254,32*79
$GPGSV,3,2,10,24,28,147,31,25,71,285,38,29,34,206,23,31,22,307,23*7E
$GPGSV,3,3,10,03,02,347,,32,00,000,*78
$GLGSV,3,1,10,74,49,115,42,66,15,306,28,73,01,123,16,76,14,307,21*61
$GLGSV,3,2,10,75,68,324,37,84,62,063,31,83,14,029,38,85,50,177,32*61
$GLGSV,3,3,10,67,11,357,24,86,02,198,*6E
$GPGSA,A,3,02,06,12,14,24,25,29,31,,,,,1.0,0.7,0.8*36
$GPVTG,24.3,T,24.3,M,5.2,N,9.7,K,A*2A
$GPRMC,060429,A,5220.017642,N,00924.826433,E,5.2,24.3,170915,0.2,W,A*3F
$GPGGA,060429,5220.017642,N,00924.826433,E,1,08,0.7,76.0,M,46.0,M,,*73
$GPGSV,3,2,10,24,28,147,31,25,71,285,38,29,34,206,23,31,22,307,23*7E
$GPGSV,3,3,10,03,02,347,,32,00,000,*78
$GLGSV,3,1,10,74,49,115,42,66,15,306,28,73,01,123,16,76,14,307,21*61
$GLGSV,3,2,10,75,68,324,37,84,62,063,31,83,14,029,38,85,50,177,32*61
$GLGSV,3,3,10,67,11,357,24,86,02,198,*6E
$GPGSA,A,3,02,06,12,14,24,25,29,31,,,,,1.0,0.7,0.8*36
$GPVTG,24.3,T,24.3,M,5.2,N,9.7,K,A*2A
$GPRMC,060429,A,5220.017642,N,00924.826433,E,5.2,24.3,170915,0.2,W,A*3F
$GPGGA,060429,5220.017642,N,00924.826433,E,1,08,0.7,76.0,M,46.0,M,,*73
$GPGSV,3,1,10,02,33,094,31,06,25,053,37,12,61,075,27,14,35,254,32*76
$GPGSV,3,2,10,24,28,147,34,25,71,285,37,31,22,307,25,03,02,347,*7A
$GPGSV,3,3,10,29,34,206,,32,00,000,*71
$GLGSV,3,1,10,74,49,115,42,66,15,306,32,73,01,123,16,76,14,307,20*6B
$GLGSV,3,2,10,75,68,324,37,84,62,063,31,83,14,029,37,85,50,177,32*6E
$GLGSV,3,3,10,67,11,357,26,86,02,198,*6C
$GPGSA,A,3,02,06,12,14,24,25,31,,,,,,1.1,0.8,0.8*33
$GPVTG,28.3,T,28.3,M,5.4,N,10.0,K,A*13
$GPRMC,060430,A,5220.019301,N,00924.827268,E,5.4,28.3,170915,0.2,W,A*38
$GPGGA,060430,5220.019301,N,00924.827268,E,1,07,0.8,76.0,M,46.0,M,,*7E
$GPGSV,3,1,10,02,33,094,31,06,25,053,37,12,61,075,27,14,35,254,32*76
$GPGSV,3,2,10,24,28,147,34,25,71,285,37,31,22,307,25,03,02,347,*7A
$GPGSV,3,3,10,29,34,206,,32,00,000,*71
$GLGSV,3,1,10,74,49,115,42,66,15,306,32,73,01,123,16,76,14,307,20*6B
$GLGSV,3,2,10,75,68,324,37,84,62,063,31,83,14,029,37,85,50,177,32*6E
$GLGSV,3,3,10,67,11,357,26,86,02,198,*6C
$GPGSA,A,3,02,06,12,14,24,25,31,,,,,,1.1,0.8,0.8*33
$GPVTG,28.3,T,28.3,M,5.4,N,10.0,K,A*13
$GPRMC,060430,A,5220.019301,N,00924.827268,E,5.4,28.3,170915,0.2,W,A*38
$GPGGA,060430,5220.019301,N,00924.827268,E,1,07,0.8,76.0,M,46.0,M,,*7E
$GPGSV,3,1,10,02,33,094,31,06,25,053,38,12,61,075,27,14,35,254,33*78
$GPGSV,3,1,10,02,33,094,31,06,25,053,38,12,61,075,27,14,35,254,33*78
$GPGSV,3,2,10,24,28,147,32,25,71,285,38,29,34,206,23,31,22,307,24*7A
$GPGSV,3,3,10,03,02,347,,32,00,000,*78
$GLGSV,3,1,10,74,49,115,42,66,15,306,31,73,01,123,16,76,14,307,22*6A
$GLGSV,3,2,10,75,68,324,37,84,62,063,30,83,14,029,36,85,50,177,33*6F
$GLGSV,3,3,10,67,11,357,25,86,02,198,*6F
$GPGSA,A,3,02,06,12,14,24,25,29,31,,,,,1.0,0.7,0.8*36
$GPVTG,28.9,T,28.9,M,5.4,N,10.0,K,A*13
$GPRMC,060431,A,5220.020758,N,00924.828596,E,5.4,28.9,170915,0.2,W,A*38
$GPGGA,060431,5220.020758,N,00924.828596,E,1,08,0.7,76.0,M,46.0,M,,*74
$GPGSV,3,2,10,24,28,147,32,25,71,285,38,29,34,206,23,31,22,307,24*7A
$GPGSV,3,3,10,03,02,347,,32,00,000,*78
$GLGSV,3,1,10,74,49,115,42,66,15,306,31,73,01,123,16,76,14,307,22*6A
$GLGSV,3,2,10,75,68,324,37,84,62,063,30,83,14,029,36,85,50,177,33*6F
$GLGSV,3,3,10,67,11,357,25,86,02,198,*6F
$GPGSA,A,3,02,06,12,14,24,25,29,31,,,,,1.0,0.7,0.8*36
$GPVTG,28.9,T,28.9,M,5.4,N,10.0,K,A*13
$GPRMC,060431,A,5220.020758,N,00924.828596,E,5.4,28.9,170915,0.2,W,A*38
$GPGGA,060431,5220.020758,N,00924.828596,E,1,08,0.7,76.0,M,46.0,M,,*74
$GPGSV,3,1,10,02,33,094,27,06,25,053,36,12,61,075,27,14,35,254,33*71
$GPGSV,3,2,10,24,28,147,32,25,71,285,38,29,34,206,24,31,22,307,24*7D
$GPGSV,3,1,10,02,33,094,27,06,25,053,36,12,61,075,27,14,35,254,33*71
$GPGSV,3,2,10,24,28,147,32,25,71,285,38,29,34,206,24,31,22,307,24*7D
$GPGSV,3,3,10,03,02,347,,32,00,000,*78
$GLGSV,3,1,10,74,49,115,42,66,15,306,29,73,01,123,16,76,14,307,25*64
$GLGSV,3,2,10,75,68,324,36,84,62,063,27,83,14,029,33,85,50,177,32*6C
$GLGSV,3,3,10,67,11,357,26,86,02,198,*6C
$GPGSA,A,3,02,06,12,14,24,25,29,31,,,,,1.0,0.7,0.8*36
$GPVTG,28.3,T,28.3,M,5.2,N,9.7,K,A*2A
$GPRMC,060432,A,5220.022453,N,00924.829753,E,5.2,28.3,170915,0.2,W,A*37
$GPGGA,060432,5220.022453,N,00924.829753,E,1,08,0.7,76.0,M,46.0,M,,*77
$GPGSV,3,3,10,03,02,347,,32,00,000,*78
$GLGSV,3,1,10,74,49,115,42,66,15,306,29,73,01,123,16,76,14,307,25*64
$GLGSV,3,2,10,75,68,324,36,84,62,063,27,83,14,029,33,85,50,177,32*6C
$GLGSV,3,3,10,67,11,357,26,86,02,198,*6C
$GPGSA,A,3,02,06,12,14,24,25,29,31,,,,,1.0,0.7,0.8*36
$GPVTG,28.3,T,28.3,M,5.2,N,9.7,K,A*2A
$GPRMC,060432,A,5220.022453,N,00924.829753,E,5.2,28.3,170915,0.2,W,A*37
$GPGGA,060432,5220.022453,N,00924.829753,E,1,08,0.7,76.0,M,46.0,M,,*77
$GPGSV,3,1,10,02,33,094,29,06,25,053,39,12,61,075,25,14,35,254,33*72
$GPGSV,3,1,10,02,33,094,29,06,25,053,39,12,61,075,25,14,35,254,33*72
$GPGSV,3,2,10,24,28,147,32,25,71,285,37,29,34,206,26,31,22,307,29*7D
$GPGSV,3,3,10,03,02,347,,32,00,000,*78
$GLGSV,3,1,10,74,49,115,42,66,15,306,28,73,01,123,16,76,14,307,25*65
$GLGSV,3,2,10,75,68,324,34,84,62,063,24,83,14,029,33,85,50,177,38*67
$GLGSV,3,3,10,67,11,357,23,86,02,198,*69
$GPGSA,A,3,02,06,12,14,24,25,29,31,,,,,1.1,0.7,0.8*37
$GPVTG,30.0,T,30.0,M,4.3,N,8.0,K,A*2C
$GPRMC,060433,A,5220.023727,N,00924.830554,E,4.3,30.0,170915,0.2,W,A*30
$GPGGA,060433,5220.023727,N,00924.830554,E,1,08,0.7,75.0,M,46.0,M,,*79
$GPGSV,3,2,10,24,28,147,32,25,71,285,37,29,34,206,26,31,22,307,29*7D
$GPGSV,3,3,10,03,02,347,,32,00,000,*78
$GLGSV,3,1,10,74,49,115,42,66,15,306,28,73,01,123,16,76,14,307,25*65
$GLGSV,3,2,10,75,68,324,34,84,62,063,24,83,14,029,33,85,50,177,38*67
$GLGSV,3,3,10,67,11,357,23,86,02,198,*69
$GPGSA,A,3,02,06,12,14,24,25,29,31,,,,,1.1,0.7,0.8*37
$GPVTG,30.0,T,30.0,M,4.3,N,8.0,K,A*2C
$GPRMC,060433,A,5220.023727,N,00924.830554,E,4.3,30.0,170915,0.2,W,A*30
$GPGGA,060433,5220.023727,N,00924.830554,E,1,08,0.7,75.0,M,46.0,M,,*79
$GPGSV,3,1,10,02,33,094,33,03,02,347,16,06,25,053,39,12,61,075,30*7B
$GPGSV,3,2,10,14,35,254,33,24,28,147,33,25,71,285,36,29,34,206,27*71
$GPGSV,3,3,10,31,22,307,29,32,00,000,*74
$GLGSV,3,1,10,74,49,115,42,66,15,306,31,73,01,123,16,76,14,307,18*63
$GLGSV,3,2,10,75,68,324,33,84,62,063,27,83,14,029,35,85,50,177,33*6E
$GLGSV,3,3,10,67,11,357,21,86,02,198,*6B
$GPGSA,A,3,02,03,06,12,14,24,25,29,31,,,,1.1,0.7,0.8*34
$GPVTG,30.0,T,30.0,M,3.0,N,5.6,K,A*23
$GPRMC,060434,A,5220.024869,N,00924.831274,E,3.0,30.0,170915,0.2,W,A*35
$GPGGA,060434,5220.024869,N,00924.831274,E,1,09,0.7,76.0,M,46.0,M,,*7A
$GPGSV,3,1,10,02,33,094,33,03,02,347,16,06,25,053,39,12,61,075,30*7B
$GPGSV,3,2,10,14,35,254,33,24,28,147,33,25,71,285,36,29,34,206,27*71
$GPGSV,3,3,10,31,22,307,29,32,00,000,*74
$GLGSV,3,1,10,74,49,115,42,66,15,306,31,73,01,123,16,76,14,307,18*63
$GLGSV,3,2,10,75,68,324,33,84,62,063,27,83,14,029,35,85,50,177,33*6E
$GLGSV,3,3,10,67,11,357,21,86,02,198,*6B
$GPGSA,A,3,02,03,06,12,14,24,25,29,31,,,,1.1,0.7,0.8*34
$GPVTG,30.0,T,30.0,M,3.0,N,5.6,K,A*23
$GPRMC,060434,A,5220.024869,N,00924.831274,E,3.0,30.0,170915,0.2,W,A*35
$GPGGA,060434,5220.024869,N,00924.831274,E,1,09,0.7,76.0,M,46.0,M,,*7A
$GPGSV,3,1,10,02,33,094,31,03,02,347,15,06,25,053,39,12,61,075,28*73
$GPGSV,3,2,10,14,35,254,32,24,28,147,30,25,71,285,35,29,34,206,27*70
$GPGSV,3,3,10,31,22,307,28,32,00,000,*75
$GPGSV,3,1,10,02,33,094,31,03,02,347,15,06,25,053,39,12,61,075,28*73
$GPGSV,3,2,10,14,35,254,32,24,28,147,30,25,71,285,35,29,34,206,27*70
$GPGSV,3,3,10,31,22,307,28,32,00,000,*75
$GLGSV,3,1,10,74,49,115,42,66,15,306,30,73,01,123,16,76,14,307,18*62
$GLGSV,3,2,10,75,68,324,34,84,62,063,27,83,14,029,36,85,50,177,34*6D
$GLGSV,3,3,10,67,11,357,16,86,02,198,*6F
$GPGSA,A,3,02,03,06,12,14,24,25,29,31,,,,1.1,0.8,0.8*3B
$GPVTG,27.5,T,27.5,M,3.9,N,7.2,K,A*2C
$GPRMC,060435,A,5220.025887,N,00924.831949,E,3.9,27.5,170915,0.2,W,A*3A
$GPGGA,060435,5220.025887,N,00924.831949,E,1,09,0.8,75.0,M,46.0,M,,*73
$GLGSV,3,1,10,74,49,115,42,66,15,306,30,73,01,123,16,76,14,307,18*62
$GLGSV,3,2,10,75,68,324,34,84,62,063,27,83,14,029,36,85,50,177,34*6D
$GLGSV,3,3,10,67,11,357,16,86,02,198,*6F
$GPGSA,A,3,02,03,06,12,14,24,25,29,31,,,,1.1,0.8,0.8*3B
$GPVTG,27.5,T,27.5,M,3.9,N,7.2,K,A*2C
$GPRMC,060435,A,5220.025887,N,00924.831949,E,3.9,27.5,170915,0.2,W,A*3A
$GPGGA,060435,5220.025887,N,00924.831949,E,1,09,0.8,75.0,M,46.0,M,,*73
$GPGSV,3,1,10,02,33,094,29,03,02,347,15,06,25,053,40,12,61,075,27*7B
$GPGSV,3,2,10,14,35,254,30,24,28,147,27,25,71,285,35,29,34,206,27*74
$GPGSV,3,3,10,31,22,307,27,32,00,000,*7A
$GLGSV,3,1,10,74,49,115,42,66,15,306,23,73,01,123,12,76,14,307,18*64
$GLGSV,3,2,10,75,68,324,34,84,62,063,28,83,14,029,36,85,50,177,33*65
$GLGSV,3,3,10,67,11,357,16,86,02,198,*6F
$GPGSA,A,3,02,03,06,12,14,24,25,29,31,,,,1.1,0.8,0.8*3B
$GPVTG,26.6,T,26.6,M,5.7,N,10.5,K,A*15
$GPRMC,060436,A,5220.027386,N,00924.833194,E,5.7,26.6,170915,0.2,W,A*31
$GPGGA,060436,5220.027386,N,00924.833194,E,1,09,0.8,75.0,M,46.0,M,,*72
$GPGSV,3,1,10,02,33,094,29,03,02,347,15,06,25,053,40,12,61,075,27*7B
$GPGSV,3,2,10,14,35,254,30,24,28,147,27,25,71,285,35,29,34,206,27*74
$GPGSV,3,3,10,31,22,307,27,32,00,000,*7A
$GLGSV,3,1,10,74,49,115,42,66,15,306,23,73,01,123,12,76,14,307,18*64
$GLGSV,3,2,10,75,68,324,34,84,62,063,28,83,14,029,36,85,50,177,33*65
$GLGSV,3,3,10,67,11,357,16,86,02,198,*6F
$GPGSA,A,3,02,03,06,12,14,24,25,29,31,,,,1.1,0.8,0.8*3B
$GPVTG,26.6,T,26.6,M,5.7,N,10.5,K,A*15
$GPRMC,060436,A,5220.027386,N,00924.833194,E,5.7,26.6,170915,0.2,W,A*31
$GPGGA,060436,5220.027386,N,00924.833194,E,1,09,0.8,75.0,M,46.0,M,,*72
$GPGSV,3,1,10,02,33,094,36,06,25,053,39,12,61,075,29,14,35,254,34*77
$GPGSV,3,2,10,24,28,147,27,25,71,285,38,29,34,206,30,31,22,307,29*71
$GPGSV,3,3,10,03,02,347,,32,00,000,*78
$GLGSV,3,1,10,74,49,115,43,66,15,306,27,73,01,123,20,76,14,307,25*6E
$GLGSV,3,2,10,75,68,324,35,84,62,063,26,83,14,029,36,85,50,177,35*6C
$GLGSV,3,3,10,67,11,357,16,86,02,198,*6F
$GPGSA,A,3,02,06,12,14,24,25,29,31,,,,,1.1,0.7,0.8*37
$GPVTG,20.9,T,20.9,M,6.2,N,11.4,K,A*13
$GPRMC,060437,A,5220.029264,N,00924.834147,E,6.2,20.9,170915,0.2,W,A*35
$GPGGA,060437,5220.029264,N,00924.834147,E,1,08,0.7,75.0,M,46.0,M,,*77
$GPGSV,3,1,10,02,33,094,36,06,25,053,39,12,61,075,29,14,35,254,34*77
$GPGSV,3,2,10,24,28,147,27,25,71,285,38,29,34,206,30,31,22,307,29*71
$GPGSV,3,3,10,03,02,347,,32,00,000,*78
$GLGSV,3,1,10,74,49,115,43,66,15,306,27,73,01,123,20,76,14,307,25*6E
$GLGSV,3,2,10,75,68,324,35,84,62,063,26,83,14,029,36,85,50,177,35*6C
$GLGSV,3,3,10,67,11,357,16,86,02,198,*6F
$GPGSA,A,3,02,06,12,14,24,25,29,31,,,,,1.1,0.7,0.8*37
$GPVTG,20.9,T,20.9,M,6.2,N,11.4,K,A*13
$GPRMC,060437,A,5220.029264,N,00924.834147,E,6.2,20.9,170915,0.2,W,A*35
$GPGGA,060437,5220.029264,N,00924.834147,E,1,08,0.7,75.0,M,46.0,M,,*77
$GPGSV,3,1,10,02,33,094,40,06,25,053,41,12,61,075,26,14,35,254,30*72
$GPGSV,3,2,10,24,28,147,33,25,71,285,40,29,34,206,36,31,22,307,35*70
$GPGSV,3,3,10,03,02,347,,32,00,000,*78
$GLGSV,3,1,10,74,49,115,44,66,15,306,34,73,01,123,29,76,14,307,30*66
$GLGSV,3,2,10,75,68,324,38,84,62,063,32,83,14,029,27,85,50,177,38*69
$GLGSV,3,3,10,67,11,357,13,86,02,198,*6A
$GPGSA,A,3,02,06,12,14,24,25,29,31,,,,,1.1,0.7,0.8*37
$GPVTG,5.5,T,5.5,M,5.0,N,9.3,K,A*2C
$GPRMC,060438,A,5220.030679,N,00924.834608,E,5.0,5.5,170915,0.2,W,A*0C
$GPGGA,060438,5220.030679,N,00924.834608,E,1,08,0.7,76.0,M,46.0,M,,*77
$GPGSV,3,1,10,02,33,094,40,06,25,053,41,12,61,075,26,14,35,254,30*72
$GPGSV,3,2,10,24,28,147,33,25,71,285,40,29,34,206,36,31,22,307,35*70
$GPGSV,3,3,10,03,02,347,,32,00,000,*78
$GLGSV,3,1,10,74,49,115,44,66,15,306,34,73,01,123,29,76,14,307,30*66
$GLGSV,3,2,10,75,68,324,38,84,62,063,32,83,14,029,27,85,50,177,38*69
$GLGSV,3,3,10,67,11,357,13,86,02,198,*6A
$GPGSA,A,3,02,06,12,14,24,25,29,31,,,,,1.1,0.7,0.8*37
$GPVTG,5.5,T,5.5,M,5.0,N,9.3,K,A*2C
$GPRMC,060438,A,5220.030679,N,00924.834608,E,5.0,5.5,170915,0.2,W,A*0C
$GPGGA,060438,5220.030679,N,00924.834608,E,1,08,0.7,76.0,M,46.0,M,,*77
$GPGSV,3,1,10,02,33,094,34,06,25,053,38,12,61,075,31,14,35,254,30*79
$GPGSV,3,2,10,24,28,147,34,25,71,285,40,29,34,206,36,31,22,307,34*76
$GPGSV,3,3,10,03,02,347,,32,00,000,*78
$GPGSV,3,1,10,02,33,094,34,06,25,053,38,12,61,075,31,14,35,254,30*79
$GPGSV,3,2,10,24,28,147,34,25,71,285,40,29,34,206,36,31,22,307,34*76
$GPGSV,3,3,10,03,02,347,,32,00,000,*78
$GLGSV,3,1,10,74,49,115,43,66,15,306,36,73,01,123,27,76,14,307,34*69
$GLGSV,3,2,10,75,68,324,33,84,62,063,31,83,14,029,30,85,50,177,40*68
$GLGSV,3,3,10,67,11,357,18,86,02,198,*61
$GPGSA,A,3,02,06,12,14,24,25,29,31,,,,,1.1,0.7,0.8*37
$GPVTG,4.6,T,4.6,M,2.9,N,5.4,K,A*29
$GPRMC,060439,A,5220.031490,N,00924.834773,E,2.9,4.6,170915,0.2,W,A*08
$GPGGA,060439,5220.031490,N,00924.834773,E,1,08,0.7,76.0,M,46.0,M,,*7F
$GLGSV,3,1,10,74,49,115,43,66,15,306,36,73,01,123,27,76,14,307,34*69
$GLGSV,3,2,10,75,68,324,33,84,62,063,31,83,14,029,30,85,50,177,40*68
$GLGSV,3,3,10,67,11,357,18,86,02,198,*61
$GPGSA,A,3,02,06,12,14,24,25,29,31,,,,,1.1,0.7,0.8*37
$GPVTG,4.6,T,4.6,M,2.9,N,5.4,K,A*29
$GPRMC,060439,A,5220.031490,N,00924.834773,E,2.9,4.6,170915,0.2,W,A*08
$GPGGA,060439,5220.031490,N,00924.834773,E,1,08,0.7,76.0,M,46.0,M,,*7F
$GPGSV,3,1,10,02,33,094,32,06,25,053,37,12,61,075,28,14,35,254,31*79
$GPGSV,3,2,10,24,28,147,34,25,71,285,39,29,34,206,33,31,22,307,35*7C
$GPGSV,3,3,10,03,02,347,,32,00,000,*78
$GLGSV,3,1,10,74,49,115,42,66,15,306,37,73,01,123,20,76,14,307,28*63
$GLGSV,3,2,10,75,68,324,32,84,62,063,25,83,14,029,31,85,50,177,32*68
$GLGSV,3,3,10,67,11,357,18,86,02,198,*61
$GPGSA,A,3,02,06,12,14,24,25,29,31,,,,,1.1,0.7,0.8*37
$GPVTG,4.9,T,4.9,M,1.0,N,1.9,K,A*2A
$GPRMC,060440,A,5220.031800,N,00924.834482,E,1.0,4.9,170915,0.2,W,A*0B
$GPGGA,060440,5220.031800,N,00924.834482,E,1,08,0.7,76.0,M,46.0,M,,*79
$GPGSV,3,1,10,02,33,094,32,06,25,053,37,12,61,075,28,14,35,254,31*79
$GPGSV,3,2,10,24,28,147,34,25,71,285,39,29,34,206,33,31,22,307,35*7C
$GPGSV,3,3,10,03,02,347,,32,00,000,*78
$GLGSV,3,1,10,74,49,115,42,66,15,306,37,73,01,123,20,76,14,307,28*63
$GLGSV,3,2,10,75,68,324,32,84,62,063,25,83,14,029,31,85,50,177,32*68
$GLGSV,3,3,10,67,11,357,18,86,02,198,*61
$GPGSA,A,3,02,06,12,14,24,25,29,31,,,,,1.1,0.7,0.8*37
$GPVTG,4.9,T,4.9,M,1.0,N,1.9,K,A*2A
$GPRMC,060440,A,5220.031800,N,00924.834482,E,1.0,4.9,170915,0.2,W,A*0B
$GPGGA,060440,5220.031800,N,00924.834482,E,1,08,0.7,76.0,M,46.0,M,,*79
$GPGSV,3,1,10,02,33,094,34,06,25,053,38,12,61,075,29,14,35,254,25*74
$GPGSV,3,2,10,24,28,147,35,25,71,285,39,29,34,206,31,31,22,307,37*7D
$GPGSV,3,3,10,03,02,347,,32,00,000,*78
$GPGSV,3,1,10,02,33,094,34,06,25,053,38,12,61,075,29,14,35,254,25*74
$GPGSV,3,2,10,24,28,147,35,25,71,285,39,29,34,206,31,31,22,307,37*7D
$GPGSV,3,3,10,03,02,347,,32,00,000,*78
$GLGSV,3,1,10,74,49,115,43,66,15,306,33,73,01,123,20,76,14,307,26*68
$GLGSV,3,2,10,75,68,324,32,84,62,063,23,83,14,029,32,85,50,177,30*6F
$GLGSV,3,3,10,67,11,357,18,86,02,198,*61
$GPGSA,A,3,02,06,12,14,24,25,29,31,,,,,1.1,0.7,0.8*37
$GPVTG,,T,,M,0.0,N,0.0,K,A*23
$GPRMC,060441,A,5220.031753,N,00924.834441,E,0.0,,170915,0.2,W,A*2E
$GPGGA,060441,5220.031753,N,00924.834441,E,1,08,0.7,75.0,M,46.0,M,,*7D
$GLGSV,3,1,10,74,49,115,43,66,15,306,33,73,01,123,20,76,14,307,26*68
$GLGSV,3,2,10,75,68,324,32,84,62,063,23,83,14,029,32,85,50,177,30*6F
$GLGSV,3,3,10,67,11,357,18,86,02,198,*61
$GPGSA,A,3,02,06,12,14,24,25,29,31,,,,,1.1,0.7,0.8*37
$GPVTG,,T,,M,0.0,N,0.0,K,A*23
$GPRMC,060441,A,5220.031753,N,00924.834441,E,0.0,,170915,0.2,W,A*2E
$GPGGA,060441,5220.031753,N,00924.834441,E,1,08,0.7,75.0,M,46.0,M,,*7D
$GPGSV,3,1,10,02,33,094,32,06,25,053,38,12,61,075,27,14,35,254,20*79
$GPGSV,3,2,10,24,28,147,35,25,71,285,37,29,34,206,34,31,22,307,38*79
$GPGSV,3,3,10,03,02,347,,32,00,000,*78
$GLGSV,3,1,10,74,49,115,41,66,15,306,34,73,01,123,16,76,14,307,25*6B
$GLGSV,3,2,10,75,68,324,32,84,62,063,27,83,14,029,33,85,50,177,32*68
$GLGSV,3,3,10,67,11,357,18,86,02,198,*61
$GPGSA,A,3,02,06,12,14,24,25,29,31,,,,,1.1,0.7,0.8*37
$GPVTG,,T,,M,0.0,N,0.0,K,A*23
$GPRMC,060442,A,5220.031659,N,00924.834479,E,0.0,,170915,0.2,W,A*2D
$GPGGA,060442,5220.031659,N,00924.834479,E,1,08,0.7,75.0,M,46.0,M,,*7E
$GPGSV,3,1,10,02,33,094,32,06,25,053,38,12,61,075,27,14,35,254,20*79
