$GPGSA,A,1,,,,,,,,,,,,,,,*1E
$GPVTG,,T,,M,,N,,K,N*2C
$GPRMC,,V,,,,,,,,,,N*53
$GPGGA,,,,,,0,,,,,,,,*66
$GPGSV,1,1,01,23,50,046,33*4E
$GLGSV,1,1,02,67,16,119,27,68,60,074,30*65
$GPGSA,A,1,,,,,,,,,,,,,,,*1E
$GPVTG,,T,,M,,N,,K,N*2C
$GPRMC,,V,,,,,,,,,,N*53
$GPGGA,,,,,,0,,,,,,,,*66
$GPGSV,1,1,02,16,25,059,31,23,51,047,31*71
$GLGSV,1,1,02,67,15,119,30,68,60,075,32*63
$GPGSA,A,1,,,,,,,,,,,,,,,*1E
$GPVTG,,T,,M,,N,,K,N*2C
$GPRMC,,V,,,,,,,,,,N*53
$GPGGA,,,,,,0,,,,,,,,*66
$GPGSV,1,1,02,16,25,059,31,23,51,047,31*71
$GLGSV,1,1,02,67,15,119,30,68,60,075,32*63
$GPGSA,A,1,,,,,,,,,,,,,,,*1E
$GPVTG,,T,,M,,N,,K,N*2C
$GPRMC,,V,,,,,,,,,,N*53
$GPGGA,,,,,,0,,,,,,,,*66
$GPGSV,2,1,05,02,10,309,28,03,38,139,24,16,25,059,30,22,06,137,26*71
$GPGSV,2,2,05,23,51,047,29*41
$GLGSV,1,1,02,67,15,119,29,68,60,075,26*6E
$GPGSA,A,1,,,,,,,,,,,,,,,*1E
$GPVTG,,T,,M,,N,,K,N*2C
$GPRMC,,V,,,,,,,,,,N*53
$GPGGA,,,,,,0,,,,,,,,*66
$GPGSV,2,1,08,02,10,309,30,03,38,139,28,07,59,239,21,09,58,345,20*75
$GPGSV,2,2,08,16,25,059,28,22,06,137,27,23,51,047,31,30,28,227,21*78
$GLGSV,1,1,03,79,78,194,18,67,15,119,24,68,60,075,28*58
$GPGSA,A,3,02,03,07,09,16,22,23,,,,,,1.2,0.9,0.8*39
$GPVTG,13.7,T,13.7,M,45.3,N,83.9,K,D*26
$GPRMC,062915,A,3206.650846,N,03454.149497,E,45.3,13.7,120416,3.0,E,D*1D
$GPGGA,062915,3206.650846,N,03454.149497,E,2,07,0.9,38.0,M,19.0,M,,*7B
$GPGSV,2,1,08,02,10,309,30,03,38,139,28,07,59,239,22,09,58,345,21*77
$GPGSV,2,2,08,16,25,059,27,22,06,137,28,23,51,047,31,30,28,227,19*73
$GLGSV,1,1,04,79,78,194,18,85,00,000,21,67,15,119,25,68,60,075,28*60
$GPGSA,A,3,02,03,07,09,16,22,23,30,,,,,1.0,0.8,0.7*36
$GPVTG,12.6,T,12.6,M,44.8,N,83.0,K,D*25
$GPRMC,062916,A,3206.658925,N,03454.149507,E,44.8,12.6,120416,3.0,E,D*10
$GPGGA,062916,3206.658925,N,03454.149507,E,2,08,0.8,36.0,M,19.0,M,,*7C
$GPGSV,3,1,10,02,10,309,27,03,38,139,26,06,30,267,17,07,59,239,18*7B
$GPGSV,3,2,10,09,58,345,19,16,25,059,27,22,06,137,27,23,51,047,31*7C
$GPGSV,3,3,10,26,06,037,18,30,28,227,19*71
$GLGSV,2,1,05,78,51,030,18,79,78,194,18,85,00,000,19,67,15,119,27*6A
$GLGSV,2,2,05,68,60,075,28*50
$GPGSA,A,3,02,03,06,07,09,16,22,23,26,30,,,1.0,0.7,0.7*3B
$GPVTG,12.6,T,12.6,M,44.6,N,82.6,K,D*2C
$GPRMC,062917,A,3206.670760,N,03454.156295,E,44.6,12.6,120416,3.0,E,D*18
$GPGGA,062917,3206.670760,N,03454.156295,E,2,10,0.7,41.0,M,19.0,M,,*7C
$GPGSV,3,1,10,02,10,309,29,03,38,139,29,06,30,267,16,07,59,239,20*70
$GPGSV,3,2,10,09,58,345,22,16,25,059,30,22,06,137,29,23,51,047,32*7F
$GPGSV,3,3,10,26,06,037,21,30,28,227,19*7B
$GLGSV,2,1,06,78,51,030,17,79,78,194,18,69,43,338,17,85,00,000,17*67
$GLGSV,2,2,06,67,15,119,31,68,60,075,32*66
$GPGSA,A,3,02,03,06,07,09,16,22,23,26,30,,,1.0,0.7,0.7*3B
$GPVTG,11.6,T,11.6,M,44.2,N,81.9,K,D*24
$GPRMC,062918,A,3206.683268,N,03454.157684,E,44.2,11.6,120416,3.0,E,D*14
$GPGGA,062918,3206.683268,N,03454.157684,E,2,10,0.7,38.0,M,19.0,M,,*79
$GPGSV,3,1,10,02,10,309,30,03,38,139,28,06,30,267,18,07,59,239,20*77
$GPGSV,3,2,10,09,58,345,24,16,25,059,29,22,06,137,29,23,51,047,32*71
$GPGSV,3,3,10,26,06,037,19,30,28,227,20*7A
$GLGSV,2,1,06,78,51,030,17,79,78,194,18,69,43,338,16,85,00,000,16*67
$GLGSV,2,2,06,67,15,119,29,68,60,075,33*6E
$GPGSA,A,3,02,03,06,07,09,16,22,23,26,30,,,1.0,0.7,0.7*3B
$GPVTG,10.7,T,10.7,M,44.0,N,81.5,K,D*2A
$GPRMC,062919,A,3206.696011,N,03454.160106,E,44.0,10.7,120416,3.0,E,D*16
$GPGGA,062919,3206.696011,N,03454.160106,E,2,10,0.7,33.0,M,19.0,M,,*72
$GPGSV,3,1,10,02,10,309,26,03,38,139,22,06,30,267,19,07,59,239,20*7B
$GPGSV,3,2,10,09,58,345,20,16,25,059,23,22,06,137,26,23,51,047,27*74
$GPGSV,3,3,10,26,06,037,20,30,28,227,20*70
$GLGSV,2,1,06,78,51,030,16,79,78,194,18,69,43,338,15,85,00,000,14*67
$GLGSV,2,2,06,67,15,119,27,68,60,075,29*6B
$GPGSA,A,3,02,03,06,07,09,16,22,23,26,30,,,1.0,0.7,0.7*3B
$GPVTG,13.1,T,13.1,M,42.9,N,79.4,K,D*23
$GPRMC,062920,A,3206.707639,N,03454.162911,E,42.9,13.1,120416,3.0,E,D*1F
$GPGGA,062920,3206.707639,N,03454.162911,E,2,10,0.7,33.0,M,19.0,M,,*71
$GPGSV,3,1,10,02,10,309,25,03,38,139,19,06,30,267,27,07,59,239,16*78
$GPGSV,3,2,10,09,58,345,22,16,25,059,25,22,06,137,27,23,51,047,31*76
$GPGSV,3,3,10,26,06,037,26,30,28,227,17*72
$GLGSV,2,1,06,78,51,030,17,79,78,194,18,69,43,338,14,85,00,000,13*60
$GLGSV,2,2,06,67,15,119,30,68,60,075,29*6D
$GPGSA,A,3,02,03,06,07,09,16,22,23,26,30,,,1.0,0.7,0.7*3B
$GPVTG,8.5,T,8.5,M,43.3,N,80.2,K,D*28
$GPRMC,062921,A,3206.718694,N,03454.163489,E,43.3,8.5,120416,3.0,E,D*2F
$GPGGA,062921,3206.718694,N,03454.163489,E,2,10,0.7,34.0,M,19.0,M,,*73
$GPGSV,3,1,10,02,10,309,28,03,38,139,24,06,30,267,27,07,59,239,22*7C
$GPGSV,3,2,10,09,58,345,20,16,25,059,28,22,06,137,25,23,51,047,31*7B
$GPGSV,3,3,10,26,06,037,23,30,28,227,17*77
$GLGSV,2,1,06,78,51,030,17,79,78,194,18,69,43,338,14,85,00,000,14*67
$GLGSV,2,2,06,67,15,119,29,68,60,075,29*65
$GPGSA,A,3,02,03,06,07,09,16,22,23,26,30,,,1.0,0.7,0.7*3B
$GPVTG,6.6,T,6.6,M,44.6,N,82.6,K,D*2C
$GPRMC,062922,A,3206.730925,N,03454.166270,E,44.6,6.6,120416,3.0,E,D*29
$GPGGA,062922,3206.730925,N,03454.166270,E,2,10,0.7,38.0,M,19.0,M,,*76
$GPGSV,3,1,10,02,10,309,28,03,38,139,24,06,30,267,28,07,59,239,21*70
$GPGSV,3,2,10,09,58,345,16,16,25,059,29,22,06,137,26,23,51,047,30*7D
$GPGSV,3,3,10,26,06,037,26,30,28,227,16*73
$GLGSV,2,1,06,78,51,030,17,79,78,194,18,69,43,338,14,85,00,000,14*67
$GLGSV,2,2,06,67,15,119,27,68,60,075,30*63
$GPGSA,A,3,02,03,06,07,09,16,22,23,26,30,,,1.0,0.7,0.7*3B
$GPVTG,6.5,T,6.5,M,44.3,N,82.1,K,D*2E
$GPRMC,062923,A,3206.742594,N,03454.168445,E,44.3,6.5,120416,3.0,E,D*23
$GPGGA,062923,3206.742594,N,03454.168445,E,2,10,0.7,37.0,M,19.0,M,,*75
$GPGSV,3,1,10,02,10,309,28,03,38,139,16,06,30,267,27,07,59,239,21*7E
$GPGSV,3,2,10,09,58,345,20,16,25,059,29,22,06,137,28,23,51,047,27*70
$GPGSV,3,3,10,26,06,037,23,30,28,227,20*73
$GLGSV,2,1,06,78,51,030,18,79,78,194,17,69,43,338,14,85,00,000,14*67
$GLGSV,2,2,06,67,15,119,28,68,60,075,29*64
$GPGSA,A,3,02,03,06,07,09,16,22,23,26,30,,,1.0,0.7,0.7*3B
$GPVTG,5.9,T,5.9,M,44.4,N,82.3,K,D*2B
$GPRMC,062924,A,3206.754781,N,03454.169874,E,44.4,5.9,120416,3.0,E,D*22
$GPGGA,062924,3206.754781,N,03454.169874,E,2,10,0.7,35.0,M,19.0,M,,*7E
$GPGSV,3,1,10,02,10,309,27,03,38,139,22,06,30,267,27,07,59,239,23*74
$GPGSV,3,2,10,09,58,345,23,16,25,059,29,22,06,137,28,23,51,047,28*7C
$GPGSV,3,3,10,26,06,037,25,30,28,227,20*75
$GLGSV,2,1,06,78,51,030,18,79,78,194,17,69,43,338,13,85,00,000,15*61
$GLGSV,2,2,06,67,15,119,32,68,60,075,31*66
$GPGSA,A,3,02,03,06,07,09,16,22,23,26,30,,,1.0,0.7,0.7*3B
$GPVTG,5.1,T,5.1,M,44.3,N,82.1,K,D*2E
$GPRMC,062925,A,3206.766214,N,03454.171451,E,44.3,5.1,120416,3.0,E,D*26
$GPGGA,062925,3206.766214,N,03454.171451,E,2,10,0.7,38.0,M,19.0,M,,*78
$GPGSV,3,1,10,02,10,309,28,03,38,139,25,06,30,267,22,07,59,239,24*7E
$GPGSV,3,2,10,09,58,345,24,16,25,059,28,22,06,137,27,23,51,047,30*7C
$GPGSV,3,3,10,26,06,037,24,30,28,227,18*7F
$GLGSV,2,1,06,78,51,030,20,79,78,194,17,69,43,338,13,85,00,000,15*6A
$GLGSV,2,2,06,67,15,119,31,68,60,075,29*6C
$GPGSA,A,3,02,03,06,07,09,16,22,23,26,30,,,1.0,0.7,0.7*3B
$GPVTG,4.7,T,4.7,M,44.2,N,81.9,K,D*24
$GPRMC,062926,A,3206.778954,N,03454.172552,E,44.2,4.7,120416,3.0,E,D*22
$GPGGA,062926,3206.778954,N,03454.172552,E,2,10,0.7,36.0,M,19.0,M,,*74
$GPGSV,3,1,10,02,10,309,27,03,38,139,26,06,30,267,25,07,59,239,22*73
$GPGSV,3,2,10,09,58,345,23,16,25,059,26,22,06,137,27,23,51,047,30*75
$GPGSV,3,3,10,26,06,037,25,30,28,227,18*7E
$GLGSV,2,1,06,78,51,030,21,79,78,194,17,69,43,338,13,85,00,000,16*68
$GLGSV,2,2,06,67,15,119,31,68,60,075,29*6C
$GPGSA,A,3,02,03,06,07,09,16,22,23,26,30,,,1.0,0.7,0.7*3B
$GPVTG,5.1,T,5.1,M,44.2,N,81.8,K,D*25
$GPRMC,062927,A,3206.791184,N,03454.173919,E,44.2,5.1,120416,3.0,E,D*24
$GPGGA,062927,3206.791184,N,03454.173919,E,2,10,0.7,35.0,M,19.0,M,,*76
$GPGSV,3,1,10,02,10,309,29,03,38,139,25,06,30,267,21,07,59,239,25*7D
$GPGSV,3,2,10,09,58,345,23,16,25,059,27,22,06,137,29,23,51,047,30*7A
$GPGSV,3,3,10,26,06,037,25,30,28,227,15*73
$GLGSV,2,1,06,78,51,030,21,79,78,194,20,69,43,338,13,85,00,000,19*63
$GLGSV,2,2,06,67,15,119,32,68,60,075,28*6E
$GPGSA,A,3,02,03,06,07,09,16,22,23,26,30,,,1.0,0.7,0.7*3B
$GPVTG,5.2,T,5.2,M,43.9,N,81.3,K,D*22
$GPRMC,062928,A,3206.803614,N,03454.175448,E,43.9,5.2,120416,3.0,E,D*21
$GPGGA,062928,3206.803614,N,03454.175448,E,2,10,0.7,35.0,M,19.0,M,,*7C
$GPGSV,3,1,10,02,10,309,29,03,38,139,24,06,30,267,21,07,59,239,24*7D
$GPGSV,3,2,10,09,58,345,23,16,25,059,28,22,06,137,26,23,51,047,31*7B
$GPGSV,3,3,10,26,06,037,25,30,28,227,19*7F
$GLGSV,2,1,06,78,51,030,21,79,78,194,20,69,43,338,13,85,00,000,20*69
$GLGSV,2,2,06,67,15,119,31,68,60,075,26*63
$GPGSA,A,3,02,03,06,07,09,16,22,23,26,30,,,1.0,0.7,0.7*3B
$GPVTG,4.3,T,4.3,M,44.3,N,82.0,K,D*2F
$GPRMC,062929,A,3206.816139,N,03454.175702,E,44.3,4.3,120416,3.0,E,D*2C
$GPGGA,062929,3206.816139,N,03454.175702,E,2,10,0.7,35.0,M,19.0,M,,*7C
$GPGSV,2,1,08,02,10,309,27,06,30,267,21,07,59,239,23,09,58,345,22*7F
$GPGSV,2,2,08,16,25,059,27,22,06,137,24,23,51,047,29,26,06,037,25*71
$GLGSV,1,1,03,69,43,338,13,67,15,119,27,68,60,075,25*50
$GPGSA,A,3,02,06,07,09,16,22,23,26,,,,,1.0,0.7,0.7*3B
$GPVTG,4.4,T,4.4,M,43.4,N,80.4,K,D*29
$GPRMC,062930,A,3206.828683,N,03454.176947,E,43.4,4.4,120416,3.0,E,D*24
$GPGGA,062930,3206.828683,N,03454.176947,E,2,08,0.7,35.0,M,19.0,M,,*7A
$GPGSV,2,1,08,02,10,309,28,03,38,139,22,06,30,267,21,07,59,239,22*74
$GPGSV,2,2,08,09,58,345,23,16,25,059,22,23,51,047,28,26,06,037,22*70
$GLGSV,1,1,02,67,15,119,29,68,60,075,26*6E
$GPGSA,A,3,02,03,06,07,09,16,23,26,,,,,1.0,0.7,0.7*38
$GPVTG,4.7,T,4.7,M,42.8,N,79.3,K,D*25
$GPRMC,062931,A,3206.840802,N,03454.178354,E,42.8,4.7,120416,3.0,E,D*24
$GPGGA,062931,3206.840802,N,03454.178354,E,2,08,0.7,34.0,M,19.0,M,,*75
$GPGSV,3,1,10,02,10,309,28,03,38,139,24,06,30,267,22,07,59,239,22*79
$GPGSV,3,2,10,09,58,345,23,16,25,059,28,22,06,137,24,23,51,047,31*79
$GPGSV,3,3,10,26,06,037,22,30,28,227,22*70
$GLGSV,1,1,02,67,15,119,30,68,60,075,27*67
$GPGSA,A,3,02,03,06,07,09,16,22,23,26,30,,,1.0,0.7,0.7*3B
$GPVTG,5.1,T,5.1,M,42.7,N,79.1,K,D*28
$GPRMC,062932,A,3206.852684,N,03454.179963,E,42.7,5.1,120416,3.0,E,D*23
$GPGGA,062932,3206.852684,N,03454.179963,E,2,10,0.7,33.0,M,19.0,M,,*74
$GPGSV,3,1,10,02,10,309,28,03,38,139,25,06,30,267,24,07,59,239,25*79
$GPGSV,3,2,10,09,58,345,26,16,25,059,29,22,06,137,23,23,51,047,32*79
$GPGSV,3,3,10,26,06,037,24,30,28,227,22*76
$GLGSV,1,1,02,67,15,119,30,68,60,075,27*67
$GPGSA,A,3,02,03,06,07,09,16,22,23,26,30,,,1.0,0.7,0.7*3B
$GPVTG,4.7,T,4.7,M,41.2,N,76.4,K,D*24
$GPRMC,062933,A,3206.863963,N,03454.180313,E,41.2,4.7,120416,3.0,E,D*2C
$GPGGA,062933,3206.863963,N,03454.180313,E,2,10,0.7,31.0,M,19.0,M,,*78
$GPGSV,3,1,10,02,10,309,27,03,38,139,25,06,30,267,25,07,59,239,27*75
$GPGSV,3,2,10,09,58,345,25,16,25,059,33,22,06,137,27,23,51,047,31*76
$GPGSV,3,3,10,26,06,037,24,30,28,227,24*70
$GLGSV,1,1,03,78,51,030,25,67,15,119,35,68,60,075,31*5B
$GPGSA,A,3,02,03,06,07,09,16,22,23,26,30,,,1.0,0.7,0.7*3B
$GPVTG,4.4,T,4.4,M,38.7,N,71.6,K,D*2A
$GPRMC,062934,A,3206.874598,N,03454.181320,E,38.7,4.4,120416,3.0,E,D*2C
$GPGGA,062934,3206.874598,N,03454.181320,E,2,10,0.7,33.0,M,19.0,M,,*72
$GPGSV,2,1,08,02,10,309,29,06,30,267,24,07,59,239,26,09,58,345,25*76
$GPGSV,2,2,08,16,25,059,31,22,06,137,30,23,51,047,33,26,06,037,28*75
$GLGSV,1,1,03,78,51,030,24,67,15,119,34,68,60,075,30*5A
$GPGSA,A,3,02,06,07,09,16,22,23,26,,,,,1.0,0.7,0.7*3B
$GPVTG,4.5,T,4.5,M,36.7,N,68.0,K,D*2A
$GPRMC,062935,A,3206.885812,N,03454.182567,E,36.7,4.5,120416,3.0,E,D*25
$GPGGA,062935,3206.885812,N,03454.182567,E,2,08,0.7,32.0,M,19.0,M,,*7C
$GPGSV,2,1,08,02,10,309,29,06,30,267,24,07,59,239,26,09,58,345,25*76
$GPGSV,2,2,08,16,25,059,31,22,06,137,30,23,51,047,33,26,06,037,28*75
$GLGSV,1,1,03,78,51,030,24,67,15,119,34,68,60,075,30*5A
$GPGSA,A,3,02,06,07,09,16,22,23,26,,,,,1.0,0.7,0.7*3B
$GPVTG,4.5,T,4.5,M,36.7,N,68.0,K,D*2A
$GPRMC,062936,A,3206.896000,N,03454.183502,E,36.7,4.5,120416,3.0,E,D*2D
$GPGGA,062936,3206.896000,N,03454.183502,E,2,08,0.7,31.0,M,19.0,M,,*77
$GPGSV,2,1,07,02,10,309,26,03,38,139,23,07,59,239,28,09,58,345,27*78
$GPGSV,2,2,07,16,25,059,34,23,51,047,31,26,06,037,27*42
$GLGSV,1,1,02,67,15,119,34,68,60,075,29*6D
$GPGSA,A,3,02,03,07,09,16,23,26,,,,,,1.0,0.7,0.7*3E
$GPVTG,5.1,T,5.1,M,33.7,N,62.3,K,D*26
$GPRMC,062937,A,3206.905330,N,03454.182736,E,33.7,5.1,120416,3.0,E,D*23
$GPGGA,062937,3206.905330,N,03454.182736,E,2,07,0.7,33.0,M,19.0,M,,*74
$GPGSV,2,1,07,02,10,309,26,03,38,139,23,07,59,239,28,09,58,345,27*78
$GPGSV,2,2,07,16,25,059,34,23,51,047,31,26,06,037,27*42
$GLGSV,1,1,02,67,15,119,34,68,60,075,29*6D
$GPGSA,A,3,02,03,07,09,16,23,26,,,,,,1.0,0.7,0.7*3E
$GPVTG,5.1,T,5.1,M,33.6,N,62.3,K,D*27
$GPRMC,062938,A,3206.914659,N,03454.183711,E,33.6,5.1,120416,3.0,E,D*23
$GPGGA,062938,3206.914659,N,03454.183711,E,2,07,0.7,33.0,M,19.0,M,,*75
$GPGSV,2,1,08,02,10,309,23,03,38,139,23,06,30,267,23,07,59,239,24*7A
$GPGSV,2,2,08,09,58,345,22,16,25,059,30,23,51,047,29,26,06,037,23*72
$GLGSV,1,1,02,67,15,119,29,68,60,075,30*69
$GPGSA,A,3,02,03,06,07,09,16,23,26,,,,,1.0,0.7,0.7*38
$GPVTG,6.1,T,6.1,M,31.0,N,57.3,K,D*25
$GPRMC,062939,A,3206.922798,N,03454.185041,E,31.0,6.1,120416,3.0,E,D*28
$GPGGA,062939,3206.922798,N,03454.185041,E,2,08,0.7,32.0,M,19.0,M,,*77
$GPGSV,2,1,08,02,10,309,27,03,38,139,23,07,59,239,24,09,58,345,23*7E
$GPGSV,2,2,08,16,25,059,28,22,06,137,24,23,51,047,28,26,06,037,25*7F
$GLGSV,1,1,03,78,51,030,21,67,15,119,30,68,60,075,32*59
$GPGSA,A,3,02,03,07,09,16,22,23,26,,,,,1.0,0.7,0.7*3E
$GPVTG,5.1,T,5.1,M,29.3,N,54.3,K,D*2C
$GPRMC,062940,A,3206.931227,N,03454.186226,E,29.3,5.1,120416,3.0,E,D*2C
$GPGGA,062940,3206.931227,N,03454.186226,E,2,08,0.7,31.0,M,19.0,M,,*79
$GPGSV,2,1,08,02,10,309,27,03,38,139,22,07,59,239,27,09,58,345,24*7B
$GPGSV,2,2,08,16,25,059,33,22,06,137,27,23,51,047,31,26,06,037,26*7D
$GLGSV,1,1,03,78,51,030,21,67,15,119,34,68,60,075,34*5B
$GPGSA,A,3,02,03,07,09,16,22,23,26,,,,,1.0,0.7,0.7*3E
$GPVTG,4.2,T,4.2,M,24.9,N,46.0,K,D*2B
$GPRMC,062941,A,3206.937605,N,03454.185955,E,24.9,4.2,120416,3.0,E,D*26
$GPGGA,062941,3206.937605,N,03454.185955,E,2,08,0.7,28.0,M,19.0,M,,*7E
$GPGSV,2,1,06,02,10,309,29,07,59,239,27,16,25,059,32,22,06,137,28*7C
$GPGSV,2,2,06,23,51,047,27,26,06,037,26*7E
$GLGSV,1,1,02,67,15,119,35,68,60,075,34*60
$GPGSA,A,3,02,07,16,22,23,26,,,,,,,1.1,0.8,0.7*3A
$GPVTG,4.6,T,4.6,M,23.8,N,44.0,K,D*2F
$GPRMC,062942,A,3206.945307,N,03454.186177,E,23.8,4.6,120416,3.0,E,D*2E
$GPGGA,062942,3206.945307,N,03454.186177,E,2,06,0.8,27.0,M,19.0,M,,*7A
$GPGSV,2,1,06,02,10,309,29,07,59,239,27,16,25,059,32,22,06,137,28*7C
$GPGSV,2,2,06,23,51,047,27,26,06,037,26*7E
$GLGSV,1,1,02,67,15,119,35,68,60,075,34*60
$GPGSA,A,3,02,07,16,22,23,26,,,,,,,1.1,0.8,0.7*3A
$GPVTG,4.6,T,4.6,M,23.8,N,44.0,K,D*2F
$GPRMC,062943,A,3206.951908,N,03454.186807,E,23.8,4.6,120416,3.0,E,D*21
$GPGGA,062943,3206.951908,N,03454.186807,E,2,06,0.8,31.0,M,19.0,M,,*72
$GPGSV,3,1,09,02,10,309,30,06,30,267,26,07,59,239,22,09,58,345,20*7D
$GPGSV,3,2,09,16,25,059,26,22,06,137,30,23,51,047,25,26,06,037,25*79
$GPGSV,3,3,09,30,28,227,22*4E
$GLGSV,1,1,04,78,51,030,21,79,78,194,22,67,15,119,27,68,60,075,35*62
$GPGSA,A,3,02,06,07,09,16,22,23,26,30,,,,1.0,0.7,0.7*38
$GPVTG,6.7,T,6.7,M,21.3,N,39.5,K,D*29
$GPRMC,062944,A,3206.957490,N,03454.188151,E,21.3,6.7,120416,3.0,E,D*22
$GPGGA,062944,3206.957490,N,03454.188151,E,2,09,0.7,28.0,M,19.0,M,,*73
$GPGSV,3,1,09,02,10,309,28,03,38,139,23,07,59,239,23,09,58,345,25*70
$GPGSV,3,2,09,16,25,059,31,22,06,137,31,23,51,047,27,26,06,037,26*7F
$GPGSV,3,3,09,30,28,227,23*4F
$GLGSV,1,1,03,78,51,030,20,67,15,119,28,68,60,075,32*51
$GPGSA,A,3,02,03,07,09,16,22,23,26,30,,,,1.0,0.7,0.7*3D
$GPVTG,8.6,T,8.6,M,19.5,N,36.1,K,D*2F
$GPRMC,062945,A,3206.961960,N,03454.188801,E,19.5,8.6,120416,3.0,E,D*2A
$GPGGA,062945,3206.961960,N,03454.188801,E,2,09,0.7,26.0,M,19.0,M,,*77
$GPGSV,3,1,09,02,10,309,31,03,38,139,28,06,30,267,26,07,59,239,23*70
$GPGSV,3,2,09,09,58,345,24,16,25,059,29,22,06,137,33,23,51,047,27*76
$GPGSV,3,3,09,26,06,037,27*43
$GLGSV,1,1,02,67,15,119,30,68,60,075,34*65
$GPGSA,A,3,02,03,06,07,09,16,22,23,26,,,,1.0,0.7,0.7*38
$GPVTG,11.0,T,11.0,M,17.2,N,31.9,K,D*29
$GPRMC,062946,A,3206.966525,N,03454.189367,E,17.2,11.0,120416,3.0,E,D*1E
$GPGGA,062946,3206.966525,N,03454.189367,E,2,09,0.7,29.0,M,19.0,M,,*7B
$GPGSV,3,1,09,02,10,309,31,03,38,139,28,06,30,267,26,07,59,239,23*70
$GPGSV,3,2,09,09,58,345,24,16,25,059,29,22,06,137,33,23,51,047,27*76
$GPGSV,3,3,09,26,06,037,27*43
$GLGSV,1,1,02,67,15,119,30,68,60,075,34*65
$GPGSA,A,3,02,03,06,07,09,16,22,23,26,,,,1.0,0.7,0.7*38
$GPVTG,11.0,T,11.0,M,17.2,N,31.9,K,D*29
$GPRMC,062947,A,3206.971236,N,03454.190441,E,17.2,11.0,120416,3.0,E,D*17
$GPGGA,062947,3206.971236,N,03454.190441,E,2,09,0.7,28.0,M,19.0,M,,*73
$GPGSV,2,1,08,02,10,309,31,03,38,139,25,06,30,267,29,07,59,239,26*77
$GPGSV,2,2,08,16,25,059,30,22,06,137,32,23,51,047,30,30,28,227,23*76
$GLGSV,1,1,02,67,15,119,27,68,60,075,33*64
$GPGSA,A,3,02,03,06,07,16,22,23,30,,,,,1.0,0.7,0.7*36
$GPVTG,12.7,T,12.7,M,11.6,N,21.6,K,D*25
$GPRMC,062948,A,3206.973130,N,03454.190909,E,11.6,12.7,120416,3.0,E,D*18
$GPGGA,062948,3206.973130,N,03454.190909,E,2,08,0.7,27.0,M,19.0,M,,*74
$GPGSV,2,1,08,02,10,309,28,03,38,139,25,06,30,267,23,07,59,239,28*7B
$GPGSV,2,2,08,09,58,345,24,16,25,059,32,22,06,137,34,23,51,047,31*7C
$GLGSV,1,1,03,69,43,338,23,67,15,119,32,68,60,075,34*57
$GPGSA,A,3,02,03,06,07,09,16,22,23,,,,,1.0,0.7,0.7*3C
$GPVTG,9.0,T,9.0,M,7.6,N,14.0,K,D*12
$GPRMC,062949,A,3206.974771,N,03454.190718,E,7.6,9.0,120416,3.0,E,D*19
$GPGGA,062949,3206.974771,N,03454.190718,E,2,08,0.7,27.0,M,19.0,M,,*7F
$GPGSV,3,1,09,02,10,309,32,03,38,139,29,06,30,267,23,07,59,239,25*71
$GPGSV,3,2,09,09,58,345,23,16,25,059,31,22,06,137,32,23,51,047,29*77
$GPGSV,3,3,09,26,06,037,26*42
$GLGSV,1,1,02,67,15,119,31,68,60,075,35*65
$GPGSA,A,3,02,03,06,07,09,16,22,23,26,,,,1.0,0.7,0.7*38
$GPVTG,9.7,T,9.7,M,5.3,N,9.8,K,D*21
$GPRMC,062950,A,3206.975647,N,03454.191165,E,5.3,9.7,120416,3.0,E,D*19
$GPGGA,062950,3206.975647,N,03454.191165,E,2,09,0.7,25.0,M,19.0,M,,*7C
$GPGSV,3,1,09,02,10,309,32,03,38,139,29,06,30,267,23,07,59,239,25*71
$GPGSV,3,2,09,09,58,345,23,16,25,059,31,22,06,137,32,23,51,047,29*77
$GPGSV,3,3,09,26,06,037,26*42
$GLGSV,1,1,02,67,15,119,31,68,60,075,35*65
$GPGSA,A,3,02,03,06,07,09,16,22,23,26,,,,1.0,0.7,0.7*38
$GPVTG,9.6,T,9.6,M,5.3,N,9.8,K,D*21
$GPRMC,062951,A,3206.977095,N,03454.191453,E,5.3,9.6,120416,3.0,E,D*12
$GPGGA,062951,3206.977095,N,03454.191453,E,2,09,0.7,25.0,M,19.0,M,,*76
$GPGSV,2,1,08,02,10,309,26,06,30,267,25,07,59,239,29,16,25,059,30*79
$GPGSV,2,2,08,22,06,137,31,23,51,047,27,26,06,037,25,30,28,227,21*7F
$GLGSV,1,1,04,78,51,030,22,79,78,194,25,67,15,119,31,68,60,075,35*61
$GPGSA,A,3,02,06,07,16,22,23,26,30,,,,,1.0,0.7,0.7*31
$GPVTG,,T,,M,0.0,N,0.0,K,D*26
$GPRMC,062952,A,3206.977234,N,03454.191689,E,0.0,,120416,3.0,E,D*3A
$GPGGA,062952,3206.977234,N,03454.191689,E,2,08,0.7,23.0,M,19.0,M,,*7E
$GPGSV,2,1,06,02,10,309,29,07,59,239,29,16,25,059,32,22,06,137,31*7A
$GPGSV,2,2,06,23,51,047,25,26,06,037,25*7F
$GLGSV,2,1,05,80,18,206,22,79,78,194,24,69,43,338,21,67,15,119,30*61
$GLGSV,2,2,05,68,60,075,35*5C
$GPGSA,A,3,02,07,16,22,23,26,,,,,,,1.0,0.7,0.7*34
$GPVTG,,T,,M,0.0,N,0.0,K,D*26
$GPRMC,062953,A,3206.977272,N,03454.191851,E,0.0,,120416,3.0,E,D*32
$GPGGA,062953,3206.977272,N,03454.191851,E,2,06,0.7,25.0,M,19.0,M,,*7E
$GPGSV,2,1,07,02,10,309,28,07,59,239,30,16,25,059,33,22,06,137,30*72
$GPGSV,2,2,07,23,51,047,23,26,06,037,27,30,28,227,21*47
$GLGSV,1,1,03,79,78,194,23,67,15,119,31,68,60,075,33*5E
$GPGSA,A,3,02,07,16,22,23,26,30,,,,,,1.0,0.7,0.7*37
$GPVTG,,T,,M,0.0,N,0.0,K,D*26
$GPRMC,062954,A,3206.977329,N,03454.191782,E,0.0,,120416,3.0,E,D*3B
$GPGGA,062954,3206.977329,N,03454.191782,E,2,07,0.7,24.0,M,19.0,M,,*77
$GPGSV,2,1,07,02,10,309,28,07,59,239,29,16,25,059,32,22,06,137,30*7B
$GPGSV,2,2,07,23,51,047,24,26,06,037,25,30,28,227,21*42
$GLGSV,1,1,04,78,51,030,21,79,78,194,25,67,15,119,29,68,60,075,34*6A
$GPGSA,A,3,02,07,16,22,23,26,30,,,,,,1.0,0.7,0.7*37
$GPVTG,,T,,M,0.0,N,0.0,K,D*26
$GPRMC,062955,A,3206.977138,N,03454.191861,E,0.0,,120416,3.0,E,D*3A
$GPGGA,062955,3206.977138,N,03454.191861,E,2,07,0.7,23.0,M,19.0,M,,*71
$GPGSV,2,1,05,02,10,309,26,07,59,239,26,16,25,059,29,22,06,137,26*75
$GPGSV,2,2,05,26,06,037,23*4B
$GLGSV,1,1,03,79,78,194,22,67,15,119,26,68,60,075,31*5B
$GPGSA,A,3,02,07,16,22,26,,,,,,,,1.0,0.7,0.7*35
$GPVTG,,T,,M,0.0,N,0.0,K,D*26
$GPRMC,062956,A,3206.977119,N,03454.192008,E,0.0,,120416,3.0,E,D*3E
$GPGGA,062956,3206.977119,N,03454.192008,E,2,05,0.7,24.0,M,19.0,M,,*70
$GPGSV,2,1,06,02,10,309,26,07,59,239,26,16,25,059,30,22,06,137,27*7F
$GPGSV,2,2,06,23,51,047,22,26,06,037,23*7E
$GLGSV,1,1,03,79,78,194,22,67,15,119,28,68,60,075,31*55
$GPGSA,A,3,02,07,16,22,23,26,,,,,,,1.0,0.7,0.7*34
$GPVTG,,T,,M,0.0,N,0.0,K,D*26
$GPRMC,062957,A,3206.977209,N,03454.192109,E,0.0,,120416,3.0,E,D*3D
$GPGGA,062957,3206.977209,N,03454.192109,E,2,06,0.7,24.0,M,19.0,M,,*70
$GPGSV,2,1,07,02,10,309,29,06,30,267,21,07,59,239,29,16,25,059,31*7C
$GPGSV,2,2,07,22,06,137,30,23,51,047,23,26,06,037,25*48
$GLGSV,1,1,03,79,78,194,25,67,15,119,30,68,60,075,34*5E
$GPGSA,A,3,02,06,07,16,22,23,26,,,,,,1.0,0.7,0.7*32
$GPVTG,,T,,M,0.0,N,0.0,K,D*26
$GPRMC,062958,A,3206.977217,N,03454.192233,E,0.0,,120416,3.0,E,D*37
$GPGGA,062958,3206.977217,N,03454.192233,E,2,07,0.7,23.0,M,19.0,M,,*7C
$GPGSV,2,1,07,02,10,309,26,06,30,267,21,07,59,239,28,16,25,059,31*72
$GPGSV,2,2,07,22,06,137,28,23,51,047,23,26,06,037,25*41
$GLGSV,1,1,04,78,51,030,21,79,78,194,22,67,15,119,29,68,60,075,33*6A
$GPGSA,A,3,02,06,07,16,22,23,26,,,,,,1.1,0.8,0.7*3C
$GPVTG,,T,,M,0.0,N,0.0,K,D*26
$GPRMC,062959,A,3206.977011,N,03454.192173,E,0.0,,120416,3.0,E,D*35
$GPGGA,062959,3206.977011,N,03454.192173,E,2,07,0.8,24.0,M,19.0,M,,*76
$GPGSV,2,1,07,02,10,309,29,07,59,239,28,16,25,059,33,22,06,137,28*73
$GPGSV,2,2,07,23,51,047,26,26,06,037,24,30,28,227,23*43
$GLGSV,1,1,03,79,78,194,22,67,15,119,32,68,60,075,36*59
$GPGSA,A,3,02,07,16,22,23,26,30,,,,,,1.1,0.8,0.7*39
$GPVTG,,T,,M,0.0,N,0.0,K,D*26
$GPRMC,063000,A,3206.977221,N,03454.192189,E,0.0,,120416,3.0,E,D*35
$GPGGA,063000,3206.977221,N,03454.192189,E,2,07,0.8,24.0,M,19.0,M,,*76
$GPGSV,2,1,08,02,10,309,30,03,38,139,23,07,59,239,31,09,58,345,25*7A
$GPGSV,2,2,08,16,25,059,32,22,06,137,32,23,51,047,28,26,06,037,31*76
$GLGSV,1,1,02,67,15,119,35,68,60,075,36*62
$GPGSA,A,3,02,03,07,09,16,22,23,26,,,,,1.0,0.7,0.7*3E
$GPVTG,10.3,T,10.3,M,1.1,N,2.0,K,D*24
$GPRMC,063001,A,3206.977217,N,03454.192167,E,1.1,10.3,120416,3.0,E,D*2D
$GPGGA,063001,3206.977217,N,03454.192167,E,2,08,0.7,24.0,M,19.0,M,,*72
$GPGSV,2,1,07,02,10,309,26,07,59,239,33,09,58,345,26,16,25,059,34*7A
$GPGSV,2,2,07,22,06,137,25,23,51,047,30,26,06,037,28*43
$GLGSV,1,1,02,67,15,119,37,68,60,075,35*63
$GPGSA,A,3,02,07,09,16,22,23,26,,,,,,1.0,0.7,0.7*3D
$GPVTG,,T,,M,0.0,N,0.0,K,D*26
$GPRMC,063002,A,3206.977704,N,03454.192235,E,0.0,,120416,3.0,E,D*31
$GPGGA,063002,3206.977704,N,03454.192235,E,2,07,0.7,23.0,M,19.0,M,,*7A
$GPGSV,2,1,07,02,10,309,24,07,59,239,30,09,58,345,27,16,25,059,34*7A
$GPGSV,2,2,07,22,06,137,26,23,51,047,31,26,06,037,25*4C
$GLGSV,1,1,02,67,15,119,36,68,60,075,32*65
$GPGSA,A,3,02,07,09,16,22,23,26,,,,,,1.0,0.7,0.7*3D
$GPVTG,,T,,M,0.0,N,0.0,K,D*26
$GPRMC,063003,A,3206.978050,N,03454.192382,E,0.0,,120416,3.0,E,D*34
$GPGGA,063003,3206.978050,N,03454.192382,E,2,07,0.7,23.0,M,19.0,M,,*7F
$GPGSV,2,1,07,02,10,309,24,07,59,239,30,09,58,345,27,16,25,059,34*7A
$GPGSV,2,2,07,22,06,137,26,23,51,047,31,26,06,037,25*4C
$GLGSV,1,1,02,67,15,119,36,68,60,075,32*65
$GPGSA,A,3,02,07,09,16,22,23,26,,,,,,1.0,0.7,0.7*3D
$GPVTG,,T,,M,0.0,N,0.0,K,D*26
$GPRMC,063004,A,3206.978051,N,03454.192382,E,0.0,,120416,3.0,E,D*32
$GPGGA,063004,3206.978051,N,03454.192382,E,2,07,0.7,23.0,M,19.0,M,,*79
$GPGSV,2,1,06,07,59,239,31,09,58,345,21,16,25,059,33,22,06,137,22*77
$GPGSV,2,2,06,23,51,047,29,26,06,037,26*70
$GLGSV,1,1,02,67,15,119,35,68,60,075,32*66
$GPGSA,A,3,07,09,16,22,23,26,,,,,,,1.1,0.8,0.7*31
$GPVTG,,T,,M,0.0,N,0.0,K,D*26
$GPRMC,063005,A,3206.978320,N,03454.192592,E,0.0,,120416,3.0,E,D*31
$GPGGA,063005,3206.978320,N,03454.192592,E,2,06,0.8,23.0,M,19.0,M,,*74
$GPGSV,2,1,06,03,38,139,24,07,59,239,33,16,25,059,35,22,06,137,28*79
$GPGSV,2,2,06,23,51,047,32,26,06,037,28*74
$GLGSV,1,1,03,79,78,194,23,67,15,119,38,68,60,075,35*51
$GPGSA,A,3,03,07,16,22,23,26,,,,,,,1.2,0.9,0.7*39
$GPVTG,,T,,M,0.0,N,0.0,K,D*26
$GPRMC,063006,A,3206.978592,N,03454.192582,E,0.0,,120416,3.0,E,D*3C
$GPGGA,063006,3206.978592,N,03454.192582,E,2,06,0.9,23.0,M,19.0,M,,*78
$GPGSV,2,1,06,03,38,139,24,07,59,239,33,16,25,059,35,22,06,137,28*79
$GPGSV,2,2,06,23,51,047,32,26,06,037,28*74
$GLGSV,1,1,03,79,78,194,23,67,15,119,38,68,60,075,35*51
$GPGSA,A,3,03,07,16,22,23,26,,,,,,,1.2,0.9,0.7*39
$GPVTG,,T,,M,0.0,N,0.0,K,D*26
$GPRMC,063007,A,3206.978592,N,03454.192582,E,0.0,,120416,3.0,E,D*3D
$GPGGA,063007,3206.978592,N,03454.192582,E,2,06,0.9,23.0,M,19.0,M,,*79
$GPGSV,2,1,08,02,10,309,26,07,59,239,30,09,58,345,27,16,25,059,36*75
$GPGSV,2,2,08,22,06,137,27,23,51,047,30,26,06,037,31,30,28,227,28*72
$GLGSV,1,1,02,67,15,119,36,68,60,075,36*61
$GPGSA,A,3,02,07,09,16,22,23,26,30,,,,,1.0,0.8,0.7*31
$GPVTG,,T,,M,0.0,N,0.0,K,D*26
$GPRMC,063008,A,3206.978553,N,03454.192704,E,0.0,,120416,3.0,E,D*33
$GPGGA,063008,3206.978553,N,03454.192704,E,2,08,0.8,23.0,M,19.0,M,,*78
$GPGSV,2,1,06,07,59,239,29,09,58,345,26,16,25,059,34,22,06,137,27*7B
$GPGSV,2,2,06,23,51,047,30,26,06,037,28*76
$GLGSV,1,1,02,67,15,119,35,68,60,075,34*60
$GPGSA,A,3,07,09,16,22,23,26,,,,,,,1.0,0.8,0.7*30
$GPVTG,15.0,T,15.0,M,2.1,N,3.8,K,D*2E
$GPRMC,063009,A,3206.978697,N,03454.192845,E,2.1,15.0,120416,3.0,E,D*2A
$GPGGA,063009,3206.978697,N,03454.192845,E,2,06,0.8,23.0,M,19.0,M,,*76
$GPGSV,2,1,06,07,59,239,29,09,58,345,26,16,25,059,34,22,06,137,27*7B
$GPGSV,2,2,06,23,51,047,30,26,06,037,28*76
$GLGSV,1,1,02,67,15,119,35,68,60,075,34*60
$GPGSA,A,3,07,09,16,22,23,26,,,,,,,1.0,0.8,0.7*30
$GPVTG,10.3,T,10.3,M,2.1,N,3.8,K,D*2E
$GPRMC,063010,A,3206.979253,N,03454.193014,E,2.1,10.3,120416,3.0,E,D*24
$GPGGA,063010,3206.979253,N,03454.193014,E,2,06,0.8,23.0,M,19.0,M,,*7E
$GPGSV,3,1,09,02,10,309,25,03,38,139,23,06,30,267,25,07,59,239,26*78
$GPGSV,3,2,09,09,58,345,20,16,25,059,24,22,06,137,24,23,51,047,26*78
$GPGSV,3,3,09,26,06,037,22*46
$GLGSV,1,1,0,*79
$GPGSA,A,3,02,03,06,07,09,16,22,23,26,,,,1.0,0.8,0.7*37
$GPVTG,4.6,T,4.6,M,6.7,N,12.4,K,D*10
$GPRMC,063011,A,3206.981980,N,03454.191864,E,6.7,4.6,120416,3.0,E,D*18
$GPGGA,063011,3206.981980,N,03454.191864,E,2,09,0.8,22.0,M,19.0,M,,*7E
$GPGSV,3,1,09,02,10,309,29,03,38,139,27,06,30,267,27,07,59,239,27*73
$GPGSV,3,2,09,09,58,345,21,16,25,059,27,22,06,137,30,23,51,047,28*71
$GPGSV,3,3,09,26,06,037,25*41
$GLGSV,1,1,02,67,15,119,25,68,60,075,23*67
$GPGSA,A,3,02,03,06,07,09,16,22,23,26,,,,1.1,0.8,0.7*36
$GPVTG,3.3,T,3.3,M,9.6,N,17.8,K,D*17
$GPRMC,063012,A,3206.984739,N,03454.192887,E,9.6,3.3,120416,3.0,E,D*10
$GPGGA,063012,3206.984739,N,03454.192887,E,2,09,0.8,23.0,M,19.0,M,,*7B
$GPGSV,2,1,07,02,10,309,28,06,30,267,24,07,59,239,25,16,25,059,27*73
$GPGSV,2,2,07,22,06,137,28,23,51,047,21,26,06,037,25*43
$GLGSV,1,1,01,68,60,075,24*58
$GPGSA,A,3,02,06,07,16,22,23,26,,,,,,1.1,0.8,0.7*3C
$GPVTG,3.4,T,3.4,M,12.7,N,23.4,K,D*27
$GPRMC,063013,A,3206.988500,N,03454.192462,E,12.7,3.4,120416,3.0,E,D*2E
$GPGGA,063013,3206.988500,N,03454.192462,E,2,07,0.8,22.0,M,19.0,M,,*76
$GPGSV,2,1,07,02,10,309,25,03,38,139,23,06,30,267,27,16,25,059,22*7E
$GPGSV,2,2,07,22,06,137,24,23,51,047,29,26,06,037,25*47
$GLGSV,1,1,02,67,15,119,24,68,60,075,22*67
$GPGSA,A,3,02,03,06,16,22,23,26,,,,,,1.1,0.8,0.7*38
$GPVTG,5.7,T,5.7,M,15.9,N,29.4,K,D*24
$GPRMC,063014,A,3206.992804,N,03454.193441,E,15.9,5.7,120416,3.0,E,D*27
$GPGGA,063014,3206.992804,N,03454.193441,E,2,07,0.8,22.0,M,19.0,M,,*73
$GPGSV,2,1,07,02,10,309,25,03,38,139,23,06,30,267,27,16,25,059,22*7E
$GPGSV,2,2,07,22,06,137,24,23,51,047,29,26,06,037,25*47
$GLGSV,1,1,02,67,15,119,24,68,60,075,22*67
$GPGSA,A,3,02,03,06,16,22,23,26,,,,,,1.1,0.8,0.7*38
$GPVTG,5.7,T,5.7,M,15.9,N,29.4,K,D*24
$GPRMC,063015,A,3206.997200,N,03454.193957,E,15.9,5.7,120416,3.0,E,D*27
$GPGGA,063015,3206.997200,N,03454.193957,E,2,07,0.8,22.0,M,19.0,M,,*73
$GPGSV,3,1,10,02,10,309,24,03,38,139,21,06,30,267,28,07,59,239,22*7A
$GPGSV,3,2,10,09,58,345,21,16,25,059,24,22,06,137,21,23,51,047,23*71
$GPGSV,3,3,10,26,06,037,22,30,28,227,21*73
$GLGSV,1,1,02,67,15,119,28,68,60,075,25*6C
$GPGSA,A,3,02,03,06,07,09,16,22,23,26,30,,,1.1,0.8,0.7*35
$GPVTG,8.3,T,8.3,M,19.1,N,35.3,K,D*2A
$GPRMC,063016,A,3207.002222,N,03454.195478,E,19.1,8.3,120416,3.0,E,D*2B
$GPGGA,063016,3207.002222,N,03454.195478,E,2,10,0.8,22.0,M,19.0,M,,*74
$GPGSV,3,1,10,02,10,309,28,03,38,139,19,06,30,267,20,07,59,239,24*73
$GPGSV,3,2,10,09,58,345,21,16,25,059,27,22,06,137,23,23,51,047,26*75
$GPGSV,3,3,10,26,06,037,24,30,28,227,25*71
$GLGSV,1,1,02,67,15,119,29,68,60,075,30*69
$GPGSA,A,3,02,03,06,07,09,16,22,23,26,30,,,1.1,0.8,0.7*35
$GPVTG,7.9,T,7.9,M,21.1,N,39.1,K,D*2F
$GPRMC,063017,A,3207.007449,N,03454.196903,E,21.1,7.9,120416,3.0,E,D*28
$GPGGA,063017,3207.007449,N,03454.196903,E,2,10,0.8,23.0,M,19.0,M,,*78
$GPGSV,3,1,10,02,10,309,28,03,38,139,19,06,30,267,20,07,59,239,23*74
$GPGSV,3,2,10,09,58,345,21,16,25,059,26,22,06,137,24,23,51,047,24*71
$GPGSV,3,3,10,26,06,037,24,30,28,227,25*71
$GLGSV,1,1,02,67,15,119,25,68,60,075,29*6D
$GPGSA,A,3,02,03,06,07,09,16,22,23,26,30,,,1.1,0.8,0.7*35
$GPVTG,7.2,T,7.2,M,21.0,N,38.9,K,D*27
$GPRMC,063018,A,3207.012628,N,03454.197800,E,21.0,7.2,120416,3.0,E,D*2F
$GPGGA,063018,3207.012628,N,03454.197800,E,2,10,0.8,23.0,M,19.0,M,,*75
$GPGSV,3,1,09,02,10,309,31,03,38,139,22,06,30,267,20,07,59,239,23*7C
$GPGSV,3,2,09,16,25,059,27,22,06,137,24,23,51,047,26,26,06,037,24*7F
$GPGSV,3,3,09,30,28,227,27*4B
$GLGSV,1,1,02,67,15,119,27,68,60,075,33*64
$GPGSA,A,3,02,03,06,07,16,22,23,26,30,,,,1.1,0.8,0.7*3C
$GPVTG,7.3,T,7.3,M,22.5,N,41.7,K,D*21
$GPRMC,063019,A,3207.019193,N,03454.198694,E,22.5,7.3,120416,3.0,E,D*29
$GPGGA,063019,3207.019193,N,03454.198694,E,2,09,0.8,22.0,M,19.0,M,,*7D
$GPGSV,3,1,09,02,10,309,31,03,38,139,23,06,30,267,22,07,59,239,28*74
$GPGSV,3,2,09,16,25,059,29,22,06,137,27,23,51,047,28,26,06,037,23*7B
$GPGSV,3,3,09,30,28,227,26*4A
$GLGSV,1,1,02,67,15,119,25,68,60,075,33*66
$GPGSA,A,3,02,03,06,07,16,22,23,26,30,,,,1.1,0.8,0.7*3C
$GPVTG,6.6,T,6.6,M,25.4,N,47.0,K,D*26
$GPRMC,063020,A,3207.026519,N,03454.198551,E,25.4,6.6,120416,3.0,E,D*21
$GPGGA,063020,3207.026519,N,03454.198551,E,2,09,0.8,23.0,M,19.0,M,,*76
$GPGSV,3,1,09,02,10,309,31,03,38,139,23,06,30,267,22,07,59,239,28*74
$GPGSV,3,2,09,16,25,059,29,22,06,137,27,23,51,047,28,26,06,037,23*7B
$GPGSV,3,3,09,30,28,227,26*4A
$GLGSV,1,1,02,67,15,119,25,68,60,075,33*66
$GPGSA,A,3,02,03,06,07,16,22,23,26,30,,,,1.1,0.8,0.7*3C
$GPVTG,6.6,T,6.6,M,25.4,N,47.0,K,D*26
$GPRMC,063021,A,3207.033541,N,03454.199504,E,25.4,6.6,120416,3.0,E,D*28
$GPGGA,063021,3207.033541,N,03454.199504,E,2,09,0.8,23.0,M,19.0,M,,*7F
$GPGSV,3,1,09,02,10,309,29,03,38,139,28,07,59,239,25,09,58,345,22*7B
$GPGSV,3,2,09,16,25,059,29,22,06,137,20,23,51,047,28,26,06,037,22*7D
$GPGSV,3,3,09,30,28,227,21*4D
$GLGSV,1,1,02,67,15,119,24,68,60,075,31*65
$GPGSA,A,3,02,03,07,09,16,22,23,26,30,,,,1.1,0.8,0.7*33
$GPVTG,6.0,T,6.0,M,27.7,N,51.3,K,D*23
$GPRMC,063022,A,3207.040835,N,03454.199155,E,27.7,6.0,120416,3.0,E,D*26
$GPGGA,063022,3207.040835,N,03454.199155,E,2,09,0.8,23.0,M,19.0,M,,*76
$GPGSV,2,1,06,02,10,309,27,03,38,139,26,07,59,239,23,09,58,345,21*70
$GPGSV,2,2,06,16,25,059,26,23,51,047,23*70
$GLGSV,1,1,01,68,60,075,26*5A
$GPGSA,A,3,02,03,07,09,16,23,,,,,,,1.1,0.8,0.7*34
$GPVTG,6.0,T,6.0,M,30.5,N,56.5,K,D*26
$GPRMC,063023,A,3207.050266,N,03454.199714,E,30.5,6.0,120416,3.0,E,D*2D
$GPGGA,063023,3207.050266,N,03454.199714,E,2,06,0.8,23.0,M,19.0,M,,*76
$GPGSV,3,1,09,02,10,309,26,03,38,139,28,06,30,267,23,07,59,239,25*75
$GPGSV,3,2,09,09,58,345,21,16,25,059,27,22,06,137,24,23,51,047,25*79
$GPGSV,3,3,09,26,06,037,21*45
$GLGSV,1,1,02,67,15,119,18,68,60,075,29*63
$GPGSA,A,3,02,03,06,07,09,16,22,23,26,,,,1.1,0.8,0.7*36
$GPVTG,5.7,T,5.7,M,30.6,N,56.6,K,D*26
$GPRMC,063024,A,3207.058612,N,03454.200668,E,30.6,5.7,120416,3.0,E,D*2B
$GPGGA,063024,3207.058612,N,03454.200668,E,2,09,0.8,23.0,M,19.0,M,,*78
$GPGSV,3,1,09,02,10,309,28,03,38,139,28,06,30,267,24,07,59,239,22*7B
$GPGSV,3,2,09,09,58,345,24,16,25,059,27,22,06,137,21,23,51,047,25*79
$GPGSV,3,3,09,26,06,037,24*40
$GLGSV,1,1,03,80,18,206,21,67,15,119,23,68,60,075,31*55
$GPGSA,A,3,02,03,06,07,09,16,22,23,26,,,,1.1,0.8,0.7*36
$GPVTG,6.4,T,6.4,M,33.1,N,61.3,K,D*23
$GPRMC,063025,A,3207.068909,N,03454.202384,E,33.1,6.4,120416,3.0,E,D*2D
$GPGGA,063025,3207.068909,N,03454.202384,E,2,09,0.8,24.0,M,19.0,M,,*7D
$GPGSV,2,1,07,02,10,309,29,03,38,139,28,06,30,267,25,07,59,239,25*73
$GPGSV,2,2,07,16,25,059,26,23,51,047,24,26,06,037,25*47
$GLGSV,1,1,02,67,15,119,27,68,60,075,35*62
$GPGSA,A,3,02,03,06,07,16,23,26,,,,,,1.1,0.8,0.7*3F
$GPVTG,7.0,T,7.0,M,34.5,N,64.0,K,D*26
$GPRMC,063026,A,3207.079359,N,03454.204587,E,34.5,7.0,120416,3.0,E,D*24
$GPGGA,063026,3207.079359,N,03454.204587,E,2,07,0.8,24.0,M,19.0,M,,*7C
$GPGSV,2,1,07,02,10,309,27,06,30,267,28,07,59,239,22,16,25,059,24*74
$GPGSV,2,2,07,22,06,137,23,23,51,047,26,26,06,037,21*4B
$GLGSV,1,1,01,68,60,075,27*5B
$GPGSA,A,3,02,06,07,16,22,23,26,,,,,,1.1,0.8,0.7*3C
$GPVTG,7.0,T,7.0,M,35.7,N,66.1,K,D*26
$GPRMC,063027,A,3207.090173,N,03454.207362,E,35.7,7.0,120416,3.0,E,D*25
$GPGGA,063027,3207.090173,N,03454.207362,E,2,07,0.8,24.0,M,19.0,M,,*7E
$GPGSV,2,1,06,02,10,309,33,03,38,139,28,06,30,267,30,07,59,239,23*7B
$GPGSV,2,2,06,22,06,137,27,23,51,047,30*7C
$GLGSV,1,1,02,67,15,119,26,68,60,075,31*67
$GPGSA,A,3,02,03,06,07,22,23,,,,,,,1.1,0.8,0.7*3C
$GPVTG,6.6,T,6.6,M,36.6,N,67.8,K,D*2C
$GPRMC,063028,A,3207.098766,N,03454.210743,E,36.6,6.6,120416,3.0,E,D*24
$GPGGA,063028,3207.098766,N,03454.210743,E,2,06,0.8,21.0,M,19.0,M,,*7E
$GPGSV,2,1,06,02,10,309,33,03,38,139,28,06,30,267,30,07,59,239,23*7B
$GPGSV,2,2,06,22,06,137,27,23,51,047,30*7C
$GLGSV,1,1,02,67,15,119,26,68,60,075,31*67
$GPGSA,A,3,02,03,06,07,22,23,,,,,,,1.1,0.8,0.7*3C
$GPVTG,6.6,T,6.6,M,36.6,N,67.8,K,D*2C
$GPRMC,063029,A,3207.108882,N,03454.212126,E,36.6,6.6,120416,3.0,E,D*2F
$GPGGA,063029,3207.108882,N,03454.212126,E,2,06,0.8,21.0,M,19.0,M,,*75
$GPGSV,2,1,07,02,10,309,28,03,38,139,26,06,30,267,23,07,59,239,24*7B
$GPGSV,2,2,07,16,25,059,22,23,51,047,23,26,06,037,24*45
$GLGSV,1,1,02,67,15,119,23,68,60,075,30*63
$GPGSA,A,3,02,03,06,07,16,23,26,,,,,,1.1,0.8,0.7*3F
$GPVTG,6.1,T,6.1,M,37.2,N,68.9,K,D*27
$GPRMC,063030,A,3207.120010,N,03454.213503,E,37.2,6.1,120416,3.0,E,D*2E
$GPGGA,063030,3207.120010,N,03454.213503,E,2,07,0.8,22.0,M,19.0,M,,*74
$GPGSV,2,1,08,02,10,309,24,03,38,139,25,06,30,267,23,07,59,239,24*7B
$GPGSV,2,2,08,09,58,345,22,16,25,059,22,23,51,047,24,26,06,037,21*7E
$GLGSV,1,1,02,67,15,119,21,68,60,075,28*68
$GPGSA,A,3,02,03,06,07,09,16,23,26,,,,,1.1,0.8,0.7*36
$GPVTG,6.6,T,6.6,M,40.0,N,74.2,K,D*23
$GPRMC,063031,A,3207.131255,N,03454.215096,E,40.0,6.6,120416,3.0,E,D*26
$GPGGA,063031,3207.131255,N,03454.215096,E,2,08,0.8,22.0,M,19.0,M,,*76
$GPGSV,3,1,09,02,10,309,24,03,38,139,23,06,30,267,22,07,59,239,22*7A
$GPGSV,3,2,09,09,58,345,18,16,25,059,24,22,06,137,19,23,51,047,23*78
$GPGSV,3,3,09,26,06,037,22*46
$GLGSV,1,1,02,67,15,119,23,68,60,075,28*6A
$GPGSA,A,3,02,03,06,07,09,16,22,23,26,,,,1.1,0.8,0.7*36
$GPVTG,5.9,T,5.9,M,40.9,N,75.7,K,D*2E
$GPRMC,063032,A,3207.142704,N,03454.216118,E,40.9,5.9,120416,3.0,E,D*21
$GPGGA,063032,3207.142704,N,03454.216118,E,2,09,0.8,21.0,M,19.0,M,,*76
$GPGSV,3,1,09,02,10,309,23,03,38,139,25,06,30,267,23,07,59,239,23*7B
$GPGSV,3,2,09,09,58,345,17,16,25,059,24,22,06,137,19,23,51,047,25*71
$GPGSV,3,3,09,26,06,037,24*40
$GLGSV,1,1,03,78,51,030,17,67,15,119,22,68,60,075,29*55
$GPGSA,A,3,02,03,06,07,09,16,22,23,26,,,,1.1,0.8,0.7*36
$GPVTG,6.1,T,6.1,M,38.7,N,71.6,K,D*2A
$GPRMC,063033,A,3207.153838,N,03454.217465,E,38.7,6.1,120416,3.0,E,D*24
$GPGGA,063033,3207.153838,N,03454.217465,E,2,09,0.8,20.0,M,19.0,M,,*78
$GPGSV,3,1,09,02,10,309,24,03,38,139,25,06,30,267,20,07,59,239,24*78
$GPGSV,3,2,09,09,58,345,19,16,25,059,24,22,06,137,20,23,51,047,24*74
$GPGSV,3,3,09,26,06,037,22*46
$GLGSV,1,1,04,78,51,030,18,80,18,206,15,67,15,119,22,68,60,075,30*64
$GPGSA,A,3,02,03,06,07,09,16,22,23,26,,,,1.1,0.8,0.7*36
$GPVTG,6.9,T,6.9,M,37.8,N,69.9,K,D*2C
$GPRMC,063034,A,3207.164395,N,03454.219111,E,37.8,6.9,120416,3.0,E,D*2B
$GPGGA,063034,3207.164395,N,03454.219111,E,2,09,0.8,21.0,M,19.0,M,,*7E
$GPGSV,3,1,09,02,10,309,25,03,38,139,22,06,30,267,20,07,59,239,22*78
$GPGSV,3,2,09,09,58,345,18,16,25,059,26,22,06,137,20,23,51,047,26*75
$GPGSV,3,3,09,26,06,037,23*47
$GLGSV,1,1,04,78,51,030,18,80,18,206,15,67,15,119,19,68,60,075,29*64
$GPGSA,A,3,02,03,06,07,09,16,22,23,26,,,,1.1,0.8,0.7*36
$GPVTG,7.7,T,7.7,M,36.5,N,67.6,K,D*21
$GPRMC,063035,A,3207.174218,N,03454.220768,E,36.5,7.7,120416,3.0,E,D*2E
$GPGGA,063035,3207.174218,N,03454.220768,E,2,09,0.8,22.0,M,19.0,M,,*7B
$GPGSV,3,1,09,02,10,309,24,03,38,139,20,06,30,267,23,07,59,239,20*7A
$GPGSV,3,2,09,09,58,345,18,16,25,059,24,22,06,137,16,23,51,047,25*71
$GPGSV,3,3,09,26,06,037,21*45
$GLGSV,1,1,04,78,51,030,18,80,18,206,14,67,15,119,19,68,60,075,28*64
$GPGSA,A,3,02,03,06,07,09,16,22,23,26,,,,1.1,0.8,0.7*36
$GPVTG,5.8,T,5.8,M,35.1,N,65.0,K,D*22
$GPRMC,063036,A,3207.183690,N,03454.221053,E,35.1,5.8,120416,3.0,E,D*25
$GPGGA,063036,3207.183690,N,03454.221053,E,2,09,0.8,22.0,M,19.0,M,,*7A
$GPGSV,3,1,09,02,10,309,24,03,38,139,21,06,30,267,20,07,59,239,21*79
$GPGSV,3,2,09,09,58,345,17,16,25,059,25,22,06,137,16,23,51,047,25*7F
$GPGSV,3,3,09,26,06,037,21*45
$GLGSV,1,1,04,78,51,030,17,80,18,206,15,67,15,119,21,68,60,075,28*61
$GPGSA,A,3,02,03,06,07,09,16,22,23,26,,,,1.1,0.8,0.7*36
$GPVTG,6.0,T,6.0,M,33.6,N,62.3,K,D*27
$GPRMC,063037,A,3207.193243,N,03454.221705,E,33.6,6.0,120416,3.0,E,D*21
$GPGGA,063037,3207.193243,N,03454.221705,E,2,09,0.8,23.0,M,19.0,M,,*75
$GPGSV,3,1,09,02,10,309,20,03,38,139,22,06,30,267,20,07,59,239,22*7D
$GPGSV,3,2,09,09,58,345,17,16,25,059,29,22,06,137,18,23,51,047,26*7E
$GPGSV,3,3,09,26,06,037,18*4F
$GLGSV,1,1,04,78,51,030,17,80,18,206,14,67,15,119,23,68,60,075,28*62
$GPGSA,A,3,02,03,06,07,09,16,22,23,26,,,,1.1,0.8,0.7*36
$GPVTG,3.8,T,3.8,M,31.9,N,59.0,K,D*21
$GPRMC,063038,A,3207.201167,N,03454.222184,E,31.9,3.8,120416,3.0,E,D*2F
$GPGGA,063038,3207.201167,N,03454.222184,E,2,09,0.8,21.0,M,19.0,M,,*79
$GPGSV,3,1,09,02,10,309,24,03,38,139,22,06,30,267,21,07,59,239,23*79
$GPGSV,3,2,09,09,58,345,17,16,25,059,24,22,06,137,19,23,51,047,27*73
$GPGSV,3,3,09,26,06,037,18*4F
$GLGSV,1,1,04,78,51,030,17,80,18,206,14,67,15,119,19,68,60,075,29*6A
$GPGSA,A,3,02,03,06,07,09,16,22,23,26,,,,1.1,0.8,0.7*36
$GPVTG,5.2,T,5.2,M,27.9,N,51.7,K,D*29
$GPRMC,063039,A,3207.208045,N,03454.223486,E,27.9,5.2,120416,3.0,E,D*2B
$GPGGA,063039,3207.208045,N,03454.223486,E,2,09,0.8,23.0,M,19.0,M,,*74
$GPGSV,3,1,10,02,10,309,24,03,38,139,20,06,30,267,22,07,59,239,20*73
$GPGSV,3,2,10,09,58,345,17,16,25,059,27,22,06,137,20,23,51,047,25*70
$GPGSV,3,3,10,26,06,037,17,30,28,227,14*73
$GLGSV,1,1,04,78,51,030,16,80,18,206,14,67,15,119,24,68,60,075,29*65
$GPGSA,A,3,02,03,06,07,09,16,22,23,26,30,,,1.0,0.7,0.7*3B
$GPVTG,6.9,T,6.9,M,24.6,N,45.5,K,D*22
$GPRMC,063040,A,3207.214573,N,03454.224309,E,24.6,6.9,120416,3.0,E,D*2B
$GPGGA,063040,3207.214573,N,03454.224309,E,2,10,0.7,24.0,M,19.0,M,,*70
$GPGSV,3,1,10,02,10,309,24,03,38,139,20,06,30,267,21,07,59,239,20*70
$GPGSV,3,2,10,09,58,345,16,16,25,059,26,22,06,137,21,23,51,047,26*72
$GPGSV,3,3,10,26,06,037,25,30,28,227,14*72
$GLGSV,1,1,04,78,51,030,17,80,18,206,13,67,15,119,24,68,60,075,28*62
$GPGSA,A,3,02,03,06,07,09,16,22,23,26,30,,,1.0,0.7,0.7*3B
$GPVTG,10.0,T,10.0,M,22.1,N,40.9,K,D*2A
$GPRMC,063041,A,3207.220542,N,03454.225700,E,22.1,10.0,120416,3.0,E,D*1C
$GPGGA,063041,3207.220542,N,03454.225700,E,2,10,0.7,25.0,M,19.0,M,,*79
$GPGSV,3,1,10,02,10,309,24,03,38,139,22,06,30,267,21,07,59,239,22*70
$GPGSV,3,2,10,09,58,345,17,16,25,059,30,22,06,137,17,23,51,047,32*74
$GPGSV,3,3,10,26,06,037,23,30,28,227,15*75
$GLGSV,2,1,05,78,51,030,17,80,18,206,13,69,43,338,11,67,15,119,25*61
$GLGSV,2,2,05,68,60,075,32*5B
$GPGSA,A,3,02,03,06,07,09,16,22,23,26,30,,,1.0,0.7,0.7*3B
$GPVTG,10.2,T,10.2,M,21.2,N,39.2,K,D*2F
$GPRMC,063042,A,3207.226527,N,03454.226869,E,21.2,10.2,120416,3.0,E,D*1B
$GPGGA,063042,3207.226527,N,03454.226869,E,2,10,0.7,25.0,M,19.0,M,,*7C
$GPGSV,3,1,10,02,10,309,24,03,38,139,27,06,30,267,23,07,59,239,23*76
$GPGSV,3,2,10,09,58,345,21,16,25,059,25,22,06,137,18,23,51,047,32*7A
$GPGSV,3,3,10,26,06,037,20,30,28,227,15*76
$GLGSV,2,1,06,78,51,030,17,80,18,206,13,79,78,194,21,69,43,338,10*66
$GLGSV,2,2,06,67,15,119,26,68,60,075,28*6B
$GPGSA,A,3,02,03,06,07,09,16,22,23,26,30,,,1.0,0.7,0.7*3B
$GPVTG,12.6,T,12.6,M,19.2,N,35.5,K,D*2F
$GPRMC,063043,A,3207.230625,N,03454.228452,E,19.2,12.6,120416,3.0,E,D*1B
$GPGGA,063043,3207.230625,N,03454.228452,E,2,10,0.7,24.0,M,19.0,M,,*70
$GPGSV,3,1,10,02,10,309,24,03,38,139,24,06,30,267,23,07,59,239,21*77
$GPGSV,3,2,10,09,58,345,21,16,25,059,21,22,06,137,22,23,51,047,24*70
$GPGSV,3,3,10,26,06,037,20,30,28,227,21*71
$GLGSV,2,1,06,78,51,030,17,80,18,206,13,79,78,194,21,69,43,338,10*66
$GLGSV,2,2,06,67,15,119,25,68,60,075,23*63
$GPGSA,A,3,02,03,06,07,09,16,22,23,26,30,,,1.0,0.7,0.7*3B
$GPVTG,27.9,T,27.9,M,17.4,N,32.2,K,D*27
$GPRMC,063044,A,3207.234863,N,03454.231543,E,17.4,27.9,120416,3.0,E,D*1C
$GPGGA,063044,3207.234863,N,03454.231543,E,2,10,0.7,26.0,M,19.0,M,,*74
$GPGSV,3,1,10,02,10,309,27,03,38,139,29,06,30,267,20,07,59,239,19*71
$GPGSV,3,2,10,09,58,345,26,16,25,059,21,22,06,137,28,23,51,047,24*7D
$GPGSV,3,3,10,26,06,037,20,30,28,227,22*72
$GLGSV,2,1,06,78,51,030,17,80,18,206,17,79,78,194,21,69,43,338,18*6A
$GLGSV,2,2,06,67,15,119,26,68,60,075,30*62
$GPGSA,A,3,02,03,06,07,09,16,22,23,26,30,,,1.0,0.7,0.7*3B
$GPVTG,29.9,T,29.9,M,16.9,N,31.3,K,D*29
$GPRMC,063045,A,3207.238629,N,03454.234486,E,16.9,29.9,120416,3.0,E,D*1E
$GPGGA,063045,3207.238629,N,03454.234486,E,2,10,0.7,27.0,M,19.0,M,,*75
$GPGSV,3,1,10,02,10,309,21,03,38,139,31,06,30,267,22,07,59,239,24*72
$GPGSV,3,2,10,09,58,345,28,16,25,059,21,22,06,137,23,23,51,047,25*79
$GPGSV,3,3,10,26,06,037,17,30,28,227,23*77
$GLGSV,2,1,06,78,51,030,14,80,18,206,23,79,78,194,20,69,43,338,25*61
$GLGSV,2,2,06,67,15,119,29,68,60,075,23*6F
$GPGSA,A,3,02,03,06,07,09,16,22,23,26,30,,,1.0,0.7,0.7*3B
$GPVTG,44.5,T,44.5,M,17.6,N,32.7,K,D*20
$GPRMC,063046,A,3207.241999,N,03454.239906,E,17.6,44.5,120416,3.0,E,D*16
$GPGGA,063046,3207.241999,N,03454.239906,E,2,10,0.7,26.0,M,19.0,M,,*75
$GPGSV,3,1,10,02,10,309,28,03,38,139,30,06,30,267,23,07,59,239,24*7B
$GPGSV,3,2,10,09,58,345,29,16,25,059,16,22,06,137,25,23,51,047,21*7E
$GPGSV,3,3,10,26,06,037,20,30,28,227,25*75
$GLGSV,2,1,06,78,51,030,19,80,18,206,22,79,78,194,20,69,43,338,22*6A
$GLGSV,2,2,06,67,15,119,31,68,60,075,23*66
$GPGSA,A,3,02,03,06,07,09,16,22,23,26,30,,,1.0,0.7,0.7*3B
$GPVTG,52.9,T,52.9,M,16.8,N,31.2,K,D*29
$GPRMC,063047,A,3207.243581,N,03454.244061,E,16.8,52.9,120416,3.0,E,D*16
$GPGGA,063047,3207.243581,N,03454.244061,E,2,10,0.7,27.0,M,19.0,M,,*70
$GPGSV,3,1,10,02,10,309,23,03,38,139,28,06,30,267,20,07,59,239,24*7A
$GPGSV,3,2,10,09,58,345,26,16,25,059,16,22,06,137,27,23,51,047,25*77
$GPGSV,3,3,10,26,06,037,18,30,28,227,20*7B
$GLGSV,2,1,06,78,51,030,19,80,18,206,21,79,78,194,19,69,43,338,22*63
$GLGSV,2,2,06,67,15,119,31,68,60,075,18*6E
$GPGSA,A,3,02,03,06,07,09,16,22,23,26,30,,,0.9,0.6,0.7*32
$GPVTG,69.2,T,69.2,M,17.9,N,33.1,K,D*28
$GPRMC,063048,A,3207.243316,N,03454.249017,E,17.9,69.2,120416,3.0,E,D*1E
$GPGGA,063048,3207.243316,N,03454.249017,E,2,10,0.6,29.0,M,19.0,M,,*74
$GPGSV,3,1,10,02,10,309,25,03,38,139,28,06,30,267,18,07,59,239,17*77
$GPGSV,3,2,10,09,58,345,25,16,25,059,16,22,06,137,21,23,51,047,25*72
$GPGSV,3,3,10,26,06,037,22,30,28,227,20*72
$GLGSV,2,1,06,78,51,030,17,80,18,206,19,79,78,194,18,69,43,338,16*60
$GLGSV,2,2,06,67,15,119,27,68,60,075,18*69
$GPGSA,A,3,02,03,06,07,09,16,22,23,26,30,,,0.9,0.6,0.7*32
$GPVTG,75.3,T,75.3,M,18.3,N,33.9,K,D*25
$GPRMC,063049,A,3207.243226,N,03454.255038,E,18.3,75.3,120416,3.0,E,D*14
$GPGGA,063049,3207.243226,N,03454.255038,E,2,10,0.6,29.0,M,19.0,M,,*77
$GPGSV,3,1,10,02,10,309,24,03,38,139,19,06,30,267,18,07,59,239,21*71
$GPGSV,3,2,10,09,58,345,19,16,25,059,16,22,06,137,24,23,51,047,25*78
$GPGSV,3,3,10,26,06,037,21,30,28,227,24*75
$GLGSV,2,1,06,78,51,030,17,80,18,206,19,79,78,194,23,69,43,338,16*68
$GLGSV,2,2,06,67,15,119,25,68,60,075,18*6B
$GPGSA,A,3,02,03,06,07,09,16,22,23,26,30,,,0.9,0.6,0.7*32
$GPVTG,85.6,T,85.6,M,16.8,N,31.1,K,D*2A
$GPRMC,063050,A,3207.243334,N,03454.260641,E,16.8,85.6,120416,3.0,E,D*1F
$GPGGA,063050,3207.243334,N,03454.260641,E,2,10,0.6,30.0,M,19.0,M,,*7B
$GPGSV,3,1,10,02,10,309,24,03,38,139,21,06,30,267,18,07,59,239,19*71
$GPGSV,3,2,10,09,58,345,20,16,25,059,16,22,06,137,21,23,51,047,17*76
$GPGSV,3,3,10,26,06,037,21,30,28,227,22*73
$GLGSV,2,1,06,78,51,030,17,80,18,206,19,79,78,194,21,69,43,338,16*6A
$GLGSV,2,2,06,67,15,119,24,68,60,075,18*6A
$GPGSA,A,3,02,03,06,07,09,16,22,23,26,30,,,0.9,0.6,0.7*32
$GPVTG,83.8,T,83.8,M,14.0,N,26.0,K,D*27
$GPRMC,063051,A,3207.243340,N,03454.264590,E,14.0,83.8,120416,3.0,E,D*14
$GPGGA,063051,3207.243340,N,03454.264590,E,2,10,0.6,30.0,M,19.0,M,,*72
$GPGSV,3,1,10,02,10,309,23,03,38,139,20,06,30,267,17,07,59,239,20*72
$GPGSV,3,2,10,09,58,345,24,16,25,059,16,22,06,137,20,23,51,047,20*77
$GPGSV,3,3,10,26,06,037,21,30,28,227,24*75
$GLGSV,2,1,06,78,51,030,17,80,18,206,15,79,78,194,23,69,43,338,20*61
$GLGSV,2,2,06,67,15,119,29,68,60,075,19*66
$GPGSA,A,3,02,03,06,07,09,16,22,23,26,30,,,0.9,0.6,0.7*32
$GPVTG,79.3,T,79.3,M,10.5,N,19.4,K,D*2E
$GPRMC,063052,A,3207.244745,N,03454.267852,E,10.5,79.3,120416,3.0,E,D*1E
$GPGGA,063052,3207.244745,N,03454.267852,E,2,10,0.6,31.0,M,19.0,M,,*76
$GPGSV,3,1,10,02,10,309,22,03,38,139,22,06,30,267,19,07,59,239,24*7B
$GPGSV,3,2,10,09,58,345,25,16,25,059,19,22,06,137,20,23,51,047,25*7C
$GPGSV,3,3,10,26,06,037,22,30,28,227,19*78
$GLGSV,2,1,06,78,51,030,17,80,18,206,15,79,78,194,23,69,43,338,21*60
$GLGSV,2,2,06,67,15,119,27,68,60,075,19*68
$GPGSA,A,3,02,03,06,07,09,16,22,23,26,30,,,0.9,0.6,0.7*32
$GPVTG,81.1,T,81.1,M,5.5,N,10.2,K,D*15
$GPRMC,063053,A,3207.243995,N,03454.268444,E,5.5,81.1,120416,3.0,E,D*2E
$GPGGA,063053,3207.243995,N,03454.268444,E,2,10,0.6,30.0,M,19.0,M,,*76
$GPGSV,3,1,10,02,10,309,19,03,38,139,22,06,30,267,22,07,59,239,21*7E
$GPGSV,3,2,10,09,58,345,25,16,25,059,20,22,06,137,20,23,51,047,23*70
$GPGSV,3,3,10,26,06,037,23,30,28,227,19*79
$GLGSV,2,1,06,78,51,030,17,80,18,206,19,79,78,194,25,69,43,338,21*6A
$GLGSV,2,2,06,67,15,119,26,68,60,075,18*68
$GPGSA,A,3,02,03,06,07,09,16,22,23,26,30,,,0.9,0.6,0.7*32
$GPVTG,82.6,T,82.6,M,1.5,N,2.8,K,D*28
$GPRMC,063054,A,3207.243720,N,03454.269071,E,1.5,82.6,120416,3.0,E,D*2A
$GPGGA,063054,3207.243720,N,03454.269071,E,2,10,0.6,30.0,M,19.0,M,,*72
$GPGSV,3,1,10,02,10,309,23,03,38,139,19,06,30,267,24,07,59,239,21*79
$GPGSV,3,2,10,09,58,345,25,16,25,059,18,22,06,137,20,23,51,047,23*7B
$GPGSV,3,3,10,26,06,037,24,30,28,227,19*7E
$GLGSV,2,1,06,78,51,030,13,80,18,206,22,79,78,194,25,69,43,338,24*63
$GLGSV,2,2,06,67,15,119,26,68,60,075,21*62
$GPGSA,A,3,02,03,06,07,09,16,22,23,26,30,,,0.9,0.6,0.7*32
$GPVTG,,T,,M,0.1,N,0.2,K,D*25
$GPRMC,063055,A,3207.243695,N,03454.269341,E,0.1,,120416,3.0,E,D*33
$GPGGA,063055,3207.243695,N,03454.269341,E,2,10,0.6,31.0,M,19.0,M,,*7D
$GPGSV,3,1,10,02,10,309,19,03,38,139,19,06,30,267,21,07,59,239,17*70
$GPGSV,3,2,10,09,58,345,25,16,25,059,19,22,06,137,20,23,51,047,17*7D
$GPGSV,3,3,10,26,06,037,24,30,28,227,21*75
$GLGSV,2,1,06,78,51,030,13,80,18,206,21,79,78,194,24,69,43,338,21*64
$GLGSV,2,2,06,67,15,119,25,68,60,075,19*6A
$GPGSA,A,3,02,03,06,07,09,16,22,23,26,30,,,0.9,0.6,0.7*32
$GPVTG,82.5,T,82.5,M,0.6,N,1.1,K,D*20
$GPRMC,063056,A,3207.243469,N,03454.269966,E,0.6,82.5,120416,3.0,E,D*28
$GPGGA,063056,3207.243469,N,03454.269966,E,2,10,0.6,31.0,M,19.0,M,,*70
$GPGSV,3,1,10,02,10,309,20,03,38,139,19,06,30,267,22,07,59,239,17*79
$GPGSV,3,2,10,09,58,345,24,16,25,059,19,22,06,137,20,23,51,047,17*7C
$GPGSV,3,3,10,26,06,037,25,30,28,227,19*7F
$GLGSV,2,1,06,78,51,030,13,80,18,206,21,79,78,194,25,69,43,338,21*65
$GLGSV,2,2,06,67,15,119,27,68,60,075,19*68
$GPGSA,A,3,02,03,06,07,09,16,22,23,26,30,,,0.9,0.6,0.7*32
$GPVTG,82.8,T,82.8,M,0.4,N,0.6,K,D*24
$GPRMC,063057,A,3207.243193,N,03454.270303,E,0.4,82.8,120416,3.0,E,D*27
$GPGGA,063057,3207.243193,N,03454.270303,E,2,10,0.6,31.0,M,19.0,M,,*70
$GPGSV,3,1,10,02,10,309,19,03,38,139,19,06,30,267,20,07,59,239,16*70
$GPGSV,3,2,10,09,58,345,24,16,25,059,18,22,06,137,20,23,51,047,16*7C
$GPGSV,3,3,10,26,06,037,24,30,28,227,20*74
$GLGSV,2,1,06,78,51,030,13,80,18,206,21,79,78,194,21,69,43,338,21*61
$GLGSV,2,2,06,67,15,119,23,68,60,075,20*66
$GPGSA,A,3,02,03,06,07,09,16,22,23,26,30,,,1.0,0.7,0.7*3B
$GPVTG,,T,,M,0.1,N,0.2,K,D*25
$GPRMC,063058,A,3207.242365,N,03454.270370,E,0.1,,120416,3.0,E,D*3F
$GPGGA,063058,3207.242365,N,03454.270370,E,2,10,0.7,31.0,M,19.0,M,,*70
$GPGSV,3,1,10,02,10,309,23,03,38,139,17,06,30,267,23,07,59,239,20*71
$GPGSV,3,2,10,09,58,345,27,16,25,059,18,22,06,137,13,23,51,047,16*7F
$GPGSV,3,3,10,26,06,037,25,30,28,227,21*74
$GLGSV,2,1,06,78,51,030,13,80,18,206,18,79,78,194,26,69,43,338,25*68
$GLGSV,2,2,06,67,15,119,26,68,60,075,22*61
$GPGSA,A,3,02,03,06,07,09,16,22,23,26,30,,,1.0,0.7,0.7*3B
$GPVTG,,T,,M,0.0,N,0.0,K,D*26
$GPRMC,063059,A,3207.242203,N,03454.270977,E,0.0,,120416,3.0,E,D*33
$GPGGA,063059,3207.242203,N,03454.270977,E,2,10,0.7,31.0,M,19.0,M,,*7D
$GPGSV,3,1,10,02,10,309,22,03,38,139,19,06,30,267,20,07,59,239,20*7D
$GPGSV,3,2,10,09,58,345,25,16,25,059,19,22,06,137,13,23,51,047,16*7C
$GPGSV,3,3,10,26,06,037,24,30,28,227,19*7E
$GLGSV,2,1,06,78,51,030,13,80,18,206,19,79,78,194,24,69,43,338,22*6C
$GLGSV,2,2,06,67,15,119,23,68,60,075,20*66
$GPGSA,A,3,02,03,06,07,09,16,22,23,26,30,,,1.0,0.7,0.7*3B
$GPVTG,,T,,M,0.0,N,0.0,K,D*26
$GPRMC,063100,A,3207.242028,N,03454.271331,E,0.0,,120416,3.0,E,D*3C
$GPGGA,063100,3207.242028,N,03454.271331,E,2,10,0.7,29.0,M,19.0,M,,*7B
$GPGSV,3,1,10,02,10,309,23,03,38,139,21,06,30,267,21,07,59,239,18*7D
$GPGSV,3,2,10,09,58,345,23,16,25,059,19,22,06,137,13,23,51,047,16*7A
$GPGSV,3,3,10,26,06,037,23,30,28,227,19*79
$GLGSV,2,1,06,78,51,030,13,80,18,206,21,79,78,194,25,69,43,338,22*66
$GLGSV,2,2,06,67,15,119,25,68,60,075,19*6A
$GPGSA,A,3,02,03,06,07,09,16,22,23,26,30,,,1.0,0.7,0.7*3B
$GPVTG,,T,,M,0.0,N,0.0,K,D*26
$GPRMC,063101,A,3207.241893,N,03454.271584,E,0.0,,120416,3.0,E,D*3E
$GPGGA,063101,3207.241893,N,03454.271584,E,2,10,0.7,29.0,M,19.0,M,,*79
$GPGSV,3,1,10,02,10,309,25,03,38,139,21,06,30,267,21,07,59,239,21*71
$GPGSV,3,2,10,09,58,345,23,16,25,059,19,22,06,137,14,23,51,047,16*7D
$GPGSV,3,3,10,26,06,037,23,30,28,227,19*79
$GLGSV,2,1,06,78,51,030,13,80,18,206,23,79,78,194,26,69,43,338,24*61
$GLGSV,2,2,06,67,15,119,27,68,60,075,20*62
$GPGSA,A,3,02,03,06,07,09,16,22,23,26,30,,,1.0,0.7,0.7*3B
$GPVTG,,T,,M,0.0,N,0.0,K,D*26
$GPRMC,063102,A,3207.241950,N,03454.271528,E,0.0,,120416,3.0,E,D*35
$GPGGA,063102,3207.241950,N,03454.271528,E,2,10,0.7,29.0,M,19.0,M,,*72
$GPGSV,3,1,10,02,10,309,24,03,38,139,21,06,30,267,20,07,59,239,19*7A
$GPGSV,3,2,10,09,58,345,22,16,25,059,18,22,06,137,17,23,51,047,16*7E
$GPGSV,3,3,10,26,06,037,23,30,28,227,19*79
$GLGSV,2,1,06,78,51,030,13,80,18,206,22,79,78,194,25,69,43,338,22*65
$GLGSV,2,2,06,67,15,119,26,68,60,075,21*62
$GPGSA,A,3,02,03,06,07,09,16,22,23,26,30,,,1.0,0.7,0.7*3B
$GPVTG,,T,,M,0.0,N,0.0,K,D*26
$GPRMC,063103,A,3207.242005,N,03454.271628,E,0.0,,120416,3.0,E,D*3D
$GPGGA,063103,3207.242005,N,03454.271628,E,2,10,0.7,29.0,M,19.0,M,,*7A
$GPGSV,3,1,10,02,10,309,23,03,37,139,22,06,30,265,19,07,60,240,19*7D
$GPGSV,3,2,10,09,58,348,20,16,25,057,22,22,05,137,17,23,51,049,22*7C
$GPGSV,3,3,10,26,06,037,23,30,29,229,19*76
$GLGSV,2,1,06,78,51,030,13,80,18,206,21,79,78,194,24,69,43,338,20*65
$GLGSV,2,2,06,67,15,119,25,68,60,075,19*6A
$GPGSA,A,3,02,03,06,07,09,16,22,23,26,30,,,1.0,0.7,0.7*3B
$GPVTG,,T,,M,0.0,N,0.0,K,D*26
$GPRMC,063104,A,3207.241828,N,03454.271817,E,0.0,,120416,3.0,E,D*3C
$GPGGA,063104,3207.241828,N,03454.271817,E,2,10,0.7,29.0,M,19.0,M,,*7B
$GPGSV,3,1,10,02,10,309,24,03,37,139,27,06,30,265,22,07,60,240,19*77
$GPGSV,3,2,10,09,58,348,20,16,25,057,22,22,05,137,15,23,51,049,23*7F
$GPGSV,3,3,10,26,06,037,22,30,29,229,16*78
$GLGSV,2,1,06,78,51,030,13,80,18,206,20,79,78,194,24,69,43,338,20*64
$GLGSV,2,2,06,67,15,119,26,68,60,075,21*62
$GPGSA,A,3,02,03,06,07,09,16,22,23,26,30,,,0.9,0.6,0.7*32
$GPVTG,,T,,M,0.0,N,0.0,K,D*26
$GPRMC,063105,A,3207.241692,N,03454.271997,E,0.0,,120416,3.0,E,D*3B
$GPGGA,063105,3207.241692,N,03454.271997,E,2,10,0.6,29.0,M,19.0,M,,*7D
$GPGSV,3,1,10,02,10,309,19,03,37,139,26,06,30,265,20,07,60,240,19*7A
$GPGSV,3,2,10,09,58,348,20,16,25,057,21,22,05,137,21,23,51,049,20*78
$GPGSV,3,3,10,26,06,037,22,30,29,229,19*77
$GLGSV,2,1,06,78,51,030,13,80,18,206,20,79,78,194,21,69,43,338,19*6B
$GLGSV,2,2,06,67,15,119,25,68,60,075,19*6A
$GPGSA,A,3,02,03,06,07,09,16,22,23,26,30,,,0.9,0.6,0.7*32
$GPVTG,,T,,M,0.0,N,0.0,K,D*26
$GPRMC,063106,A,3207.241599,N,03454.272003,E,0.0,,120416,3.0,E,D*37
$GPGGA,063106,3207.241599,N,03454.272003,E,2,10,0.6,29.0,M,19.0,M,,*71
$GPGSV,3,1,10,02,10,309,21,03,37,139,28,06,30,265,19,07,60,240,19*75
$GPGSV,3,2,10,09,58,348,20,16,25,057,21,22,05,137,16,23,51,049,22*7E
$GPGSV,3,3,10,26,06,037,20,30,29,229,20*7F
$GLGSV,2,1,06,78,51,030,13,80,18,206,20,79,78,194,24,69,43,338,21*65
$GLGSV,2,2,06,67,15,119,24,68,60,075,18*6A
$GPGSA,A,3,02,03,06,07,09,16,22,23,26,30,,,0.9,0.6,0.7*32
$GPVTG,,T,,M,0.0,N,0.0,K,D*26
$GPRMC,063107,A,3207.241597,N,03454.272123,E,0.0,,120416,3.0,E,D*3B
$GPGGA,063107,3207.241597,N,03454.272123,E,2,10,0.6,29.0,M,19.0,M,,*7D
$GPGSV,3,1,10,02,10,309,22,03,37,139,28,06,30,265,23,07,60,240,16*70
$GPGSV,3,2,10,09,58,348,16,16,25,057,24,22,05,137,19,23,51,049,25*76
$GPGSV,3,3,10,26,06,037,21,30,29,229,21*7F
$GLGSV,2,1,06,78,51,030,13,80,18,206,15,79,78,194,27,69,43,338,25*64
$GLGSV,2,2,06,67,15,119,24,68,60,075,21*60
$GPGSA,A,3,02,03,06,07,09,16,22,23,26,30,,,0.9,0.6,0.7*32
$GPVTG,,T,,M,0.0,N,0.0,K,D*26
$GPRMC,063108,A,3207.241465,N,03454.272324,E,0.0,,120416,3.0,E,D*3D
$GPGGA,063108,3207.241465,N,03454.272324,E,2,10,0.6,29.0,M,19.0,M,,*7B
$GPGSV,3,1,10,02,10,309,18,03,37,139,25,06,30,265,19,07,60,240,16*7D
$GPGSV,3,2,10,09,58,348,16,16,25,057,23,22,05,137,23,23,51,049,23*7E
$GPGSV,3,3,10,26,06,037,19,30,29,229,20*75
$GLGSV,2,1,06,78,51,030,16,80,18,206,15,79,78,194,26,69,43,338,24*61
$GLGSV,2,2,06,67,15,119,24,68,60,075,18*6A
$GPGSA,A,3,02,03,06,07,09,16,22,23,26,30,,,0.9,0.6,0.7*32
$GPVTG,87.1,T,87.1,M,9.7,N,18.0,K,D*11
$GPRMC,063109,A,3207.241764,N,03454.277417,E,9.7,87.1,120416,3.0,E,D*22
$GPGGA,063109,3207.241764,N,03454.277417,E,2,10,0.6,27.0,M,19.0,M,,*74
$GPGSV,3,1,10,02,10,309,21,03,37,139,25,06,30,265,22,07,60,240,17*7E
$GPGSV,3,2,10,09,58,348,20,16,25,057,22,22,05,137,20,23,51,049,19*70
$GPGSV,3,3,10,26,06,037,20,30,29,229,20*7F
$GLGSV,2,1,06,78,51,030,18,80,18,206,17,79,78,194,25,69,43,338,25*6F
$GLGSV,2,2,06,67,15,119,24,68,60,075,20*61
$GPGSA,A,3,02,03,06,07,09,16,22,23,26,30,,,0.9,0.6,0.7*32
$GPVTG,81.5,T,81.5,M,12.9,N,23.9,K,D*24
$GPRMC,063110,A,3207.242352,N,03454.282085,E,12.9,81.5,120416,3.0,E,D*1B
$GPGGA,063110,3207.242352,N,03454.282085,E,2,10,0.6,27.0,M,19.0,M,,*7B
$GPGSV,3,1,10,02,10,309,26,03,37,139,27,06,30,265,22,07,60,240,19*75
$GPGSV,3,2,10,09,58,348,25,16,25,057,22,22,05,137,28,23,51,049,19*7D
$GPGSV,3,3,10,26,06,037,25,30,29,229,20*7A
$GLGSV,2,1,06,78,51,030,18,80,18,206,22,79,78,194,24,69,43,338,23*6E
$GLGSV,2,2,06,67,15,119,27,68,60,075,24*66
$GPGSA,A,3,02,03,06,07,09,16,22,23,26,30,,,0.9,0.6,0.7*32
$GPVTG,86.4,T,86.4,M,14.4,N,26.7,K,D*24
$GPRMC,063111,A,3207.242079,N,03454.286517,E,14.4,86.4,120416,3.0,E,D*17
$GPGGA,063111,3207.242079,N,03454.286517,E,2,10,0.6,28.0,M,19.0,M,,*75
$GPGSV,3,1,10,02,10,309,27,03,37,139,25,06,30,265,22,07,60,240,19*76
$GPGSV,3,2,10,09,58,348,22,16,25,057,18,22,05,137,29,23,51,049,19*72
$GPGSV,3,3,10,26,06,037,26,30,29,229,16*7C
$GLGSV,2,1,06,78,51,030,18,80,18,206,19,79,78,194,23,69,43,338,20*62
$GLGSV,2,2,06,67,15,119,26,68,60,075,21*62
$GPGSA,A,3,02,03,06,07,09,16,22,23,26,30,,,0.9,0.6,0.7*32
$GPVTG,88.0,T,88.0,M,15.0,N,27.9,K,D*2E
$GPRMC,063112,A,3207.242757,N,03454.290995,E,15.0,88.0,120416,3.0,E,D*11
$GPGGA,063112,3207.242757,N,03454.290995,E,2,10,0.6,29.0,M,19.0,M,,*7D
$GPGSV,3,1,10,02,10,309,29,03,37,139,26,06,30,265,18,07,60,240,19*72
$GPGSV,3,2,10,09,58,348,21,16,25,057,18,22,05,137,29,23,51,049,16*7E
$GPGSV,3,3,10,26,06,037,25,30,29,229,16*7F
$GLGSV,2,1,06,78,51,030,18,80,18,206,25,79,78,194,26,69,43,338,24*6C
$GLGSV,2,2,06,67,15,119,28,68,60,075,23*6E
$GPGSA,A,3,02,03,06,07,09,16,22,23,26,30,,,0.9,0.6,0.7*32
$GPVTG,86.1,T,86.1,M,17.0,N,31.4,K,D*26
$GPRMC,063113,A,3207.243824,N,03454.297047,E,17.0,86.1,120416,3.0,E,D*16
$GPGGA,063113,3207.243824,N,03454.297047,E,2,10,0.6,28.0,M,19.0,M,,*76
$GPGSV,3,1,10,02,10,309,29,03,37,139,25,06,30,265,18,07,60,240,20*7B
$GPGSV,3,2,10,09,58,348,22,16,25,057,18,22,05,137,27,23,51,049,16*73
$GPGSV,3,3,10,26,06,037,24,30,29,229,16*7E
$GLGSV,2,1,06,78,51,030,18,80,18,206,25,79,78,194,26,69,43,338,24*6C
$GLGSV,2,2,06,67,15,119,28,68,60,075,23*6E
$GPGSA,A,3,02,03,06,07,09,16,22,23,26,30,,,0.9,0.6,0.7*32
$GPVTG,83.8,T,83.8,M,18.6,N,34.4,K,D*2A
$GPRMC,063114,A,3207.245287,N,03454.303587,E,18.6,83.8,120416,3.0,E,D*14
$GPGGA,063114,3207.245287,N,03454.303587,E,2,10,0.6,27.0,M,19.0,M,,*7E
$GPGSV,3,1,10,02,10,309,29,03,37,139,25,06,30,265,16,07,60,240,21*74
$GPGSV,3,2,10,09,58,348,19,16,25,057,18,22,05,137,26,23,51,049,18*74
$GPGSV,3,3,10,26,06,037,26,30,29,229,18*72
$GLGSV,2,1,06,78,50,029,14,80,20,206,24,79,79,195,23,69,44,338,26*63
$GLGSV,2,2,06,67,14,120,27,68,59,078,23*6D
$GPGSA,A,3,02,03,06,07,09,16,22,23,26,30,,,0.9,0.6,0.7*32
$GPVTG,89.6,T,89.6,M,18.6,N,34.5,K,D*2B
$GPRMC,063115,A,3207.243926,N,03454.309733,E,18.6,89.6,120416,3.0,E,D*10
$GPGGA,063115,3207.243926,N,03454.309733,E,2,10,0.6,26.0,M,19.0,M,,*7F
$GPGSV,3,1,10,02,10,309,29,03,37,139,25,06,30,265,19,07,60,240,19*70
$GPGSV,3,2,10,09,58,348,20,16,25,057,18,22,05,137,23,23,51,049,18*7B
$GPGSV,3,3,10,26,06,037,25,30,29,229,18*71
$GLGSV,2,1,06,78,50,029,14,80,20,206,23,79,79,195,22,69,44,338,22*61
$GLGSV,2,2,06,67,14,120,23,68,59,078,21*6B
$GPGSA,A,3,02,03,06,07,09,16,22,23,26,30,,,0.9,0.6,0.7*32
$GPVTG,94.6,T,94.6,M,19.7,N,36.4,K,D*28
$GPRMC,063116,A,3207.242516,N,03454.317278,E,19.7,94.6,120416,3.0,E,D*14
$GPGGA,063116,3207.242516,N,03454.317278,E,2,10,0.6,27.0,M,19.0,M,,*76
$GPGSV,3,1,10,02,10,309,30,03,37,139,27,06,30,265,20,07,60,240,21*7B
$GPGSV,3,2,10,09,58,348,21,16,25,057,18,22,05,137,29,23,51,049,23*78
$GPGSV,3,3,10,26,06,037,25,30,29,229,18*71
$GLGSV,2,1,06,78,50,029,14,80,20,206,24,79,79,195,23,69,44,338,26*63
$GLGSV,2,2,06,67,14,120,27,68,59,078,21*6F
$GPGSA,A,3,02,03,06,07,09,16,22,23,26,30,,,0.9,0.6,0.7*32
$GPVTG,85.2,T,85.2,M,20.7,N,38.3,K,D*2B
$GPRMC,063117,A,3207.245479,N,03454.325762,E,20.7,85.2,120416,3.0,E,D*1B
$GPGGA,063117,3207.245479,N,03454.325762,E,2,10,0.6,27.0,M,19.0,M,,*77
$GPGSV,3,1,10,02,10,309,31,03,37,139,26,06,30,265,21,07,60,240,22*79
$GPGSV,3,2,10,09,58,348,20,16,25,057,14,22,05,137,29,23,51,049,24*72
$GPGSV,3,3,10,26,06,037,23,30,29,229,18*77
$GLGSV,2,1,07,78,50,029,14,80,20,206,26,79,79,195,23,69,44,338,25*63
$GLGSV,2,2,07,84,00,000,12,67,14,120,27,68,59,078,23*53
$GPGSA,A,3,02,03,06,07,09,16,22,23,26,30,,,0.9,0.6,0.7*32
$GPVTG,81.4,T,81.4,M,23.4,N,43.3,K,D*27
$GPRMC,063118,A,3207.248043,N,03454.335227,E,23.4,81.4,120416,3.0,E,D*13
