$GPGSV,1,1,0,*65
$GLGSV,1,1,0,*79
$GPGSA,A,1,,,,,,,,,,,,,,,*1E
$GPVTG,,T,,M,,N,,K,N*2C
$GPRMC,,V,,,,,,,,,,N*53
$GPGGA,,,,,,0,,,,,,,,*66
$GPGSV,1,1,0,*65
$GLGSV,1,1,0,*79
$GPGSA,A,1,,,,,,,,,,,,,,,*1E
$GPVTG,,T,,M,,N,,K,N*2C
$GPRMC,,V,,,,,,,,,,N*53
$GPGGA,,,,,,0,,,,,,,,*66
$GPGSV,1,1,0,*65
$GLGSV,1,1,0,*79
$GPGSA,A,1,,,,,,,,,,,,,,,*1E
$GPVTG,,T,,M,,N,,K,N*2C
$GPRMC,,V,,,,,,,,,,N*53
$GPGGA,,,,,,0,,,,,,,,*66
$GPGSV,1,1,0,*65
$GLGSV,1,1,0,*79
$GPGSA,A,1,,,,,,,,,,,,,,,*1E
$GPVTG,,T,,M,,N,,K,N*2C
$GPRMC,,V,,,,,,,,,,N*53
$GPGGA,,,,,,0,,,,,,,,*66
$GPGSV,1,1,0,*65
$GLGSV,1,1,0,*79
$GPGSA,A,1,,,,,,,,,,,,,,,*1E
$GPVTG,,T,,M,,N,,K,N*2C
$GPRMC,,V,,,,,,,,,,N*53
$GPGGA,,,,,,0,,,,,,,,*66
$GPGSV,1,1,0,*65
$GLGSV,1,1,0,*79
$GPGSA,A,1,,,,,,,,,,,,,,,*1E
$GPVTG,,T,,M,,N,,K,N*2C
$GPRMC,,V,,,,,,,,,,N*53
$GPGGA,,,,,,0,,,,,,,,*66
$GPGSV,1,1,0,*65
$GLGSV,1,1,0,*79
$GPGSA,A,1,,,,,,,,,,,,,,,*1E
$GPVTG,,T,,M,,N,,K,N*2C
$GPRMC,,V,,,,,,,,,,N*53
$GPGGA,,,,,,0,,,,,,,,*66
$GPGSV,1,1,0,*65
$GLGSV,1,1,0,*79
$GPGSA,A,1,,,,,,,,,,,,,,,*1E
$GPVTG,,T,,M,,N,,K,N*2C
$GPRMC,,V,,,,,,,,,,N*53
$GPGGA,,,,,,0,,,,,,,,*66
$GPGSV,1,1,0,*65
$GLGSV,1,1,0,*79
$GPGSA,A,1,,,,,,,,,,,,,,,*1E
$GPVTG,,T,,M,,N,,K,N*2C
$GPRMC,,V,,,,,,,,,,N*53
$GPGGA,,,,,,0,,,,,,,,*66
$GPGSV,1,1,0,*65
$GLGSV,1,1,0,*79
$GPGSA,A,1,,,,,,,,,,,,,,,*1E
$GPVTG,,T,,M,,N,,K,N*2C
$GPRMC,,V,,,,,,,,,,N*53
$GPGGA,,,,,,0,,,,,,,,*66
$GPGSV,1,1,0,*65
$GLGSV,1,1,0,*79
$GPGSA,A,1,,,,,,,,,,,,,,,*1E
$GPVTG,,T,,M,,N,,K,N*2C
$GPRMC,,V,,,,,,,,,,N*53
$GPGGA,,,,,,0,,,,,,,,*66
$GPGSV,1,1,0,*65
$GLGSV,1,1,0,*79
$GPGSA,A,1,,,,,,,,,,,,,,,*1E
$GPVTG,,T,,M,,N,,K,N*2C
$GPRMC,,V,,,,,,,,,,N*53
$GPGGA,,,,,,0,,,,,,,,*66
$GPGSV,1,1,0,*65
$GLGSV,1,1,0,*79
$GPGSA,A,1,,,,,,,,,,,,,,,*1E
$GPVTG,,T,,M,,N,,K,N*2C
$GPRMC,,V,,,,,,,,,,N*53
$GPGGA,,,,,,0,,,,,,,,*66
$GPGSV,1,1,0,*65
$GLGSV,1,1,0,*79
$GPGSA,A,1,,,,,,,,,,,,,,,*1E
$GPVTG,,T,,M,,N,,K,N*2C
$GPRMC,,V,,,,,,,,,,N*53
$GPGGA,,,,,,0,,,,,,,,*66
$GPGSV,1,1,0,*65
$GLGSV,1,1,0,*79
$GPGSA,A,1,,,,,,,,,,,,,,,*1E
$GPVTG,,T,,M,,N,,K,N*2C
$GPRMC,,V,,,,,,,,,,N*53
$GPGGA,,,,,,0,,,,,,,,*66
$GPGSV,1,1,0,*65
$GLGSV,1,1,0,*79
$GPGSA,A,1,,,,,,,,,,,,,,,*1E
$GPVTG,,T,,M,,N,,K,N*2C
$GPRMC,,V,,,,,,,,,,N*53
$GPGGA,,,,,,0,,,,,,,,*66
$GPGSV,1,1,0,*65
$GLGSV,1,1,0,*79
$GPGSA,A,1,,,,,,,,,,,,,,,*1E
$GPVTG,,T,,M,,N,,K,N*2C
$GPRMC,,V,,,,,,,,,,N*53
$GPGGA,,,,,,0,,,,,,,,*66
$GPGSV,1,1,0,*65
$GLGSV,1,1,0,*79
$GPGSA,A,1,,,,,,,,,,,,,,,*1E
$GPVTG,,T,,M,,N,,K,N*2C
$GPRMC,,V,,,,,,,,,,N*53
$GPGGA,,,,,,0,,,,,,,,*66
$GPGSV,1,1,0,*65
$GLGSV,1,1,0,*79
$GPGSA,A,1,,,,,,,,,,,,,,,*1E
$GPVTG,,T,,M,,N,,K,N*2C
$GPRMC,,V,,,,,,,,,,N*53
$GPGGA,,,,,,0,,,,,,,,*66
$GPGSV,1,1,0,*65
$GLGSV,1,1,0,*79
$GPGSA,A,1,,,,,,,,,,,,,,,*1E
$GPVTG,,T,,M,,N,,K,N*2C
$GPRMC,,V,,,,,,,,,,N*53
$GPGGA,,,,,,0,,,,,,,,*66
$GPGSV,1,1,0,*65
$GLGSV,1,1,0,*79
$GPGSA,A,1,,,,,,,,,,,,,,,*1E
$GPVTG,,T,,M,,N,,K,N*2C
$GPRMC,,V,,,,,,,,,,N*53
$GPGGA,,,,,,0,,,,,,,,*66
$GPGSV,1,1,0,*65
$GLGSV,1,1,0,*79
$GPGSA,A,1,,,,,,,,,,,,,,,*1E
$GPVTG,,T,,M,,N,,K,N*2C
$GPRMC,,V,,,,,,,,,,N*53
$GPGGA,,,,,,0,,,,,,,,*66
$GPGSV,1,1,0,*65
$GLGSV,1,1,0,*79
$GPGSA,A,1,,,,,,,,,,,,,,,*1E
$GPVTG,,T,,M,,N,,K,N*2C
$GPRMC,,V,,,,,,,,,,N*53
$GPGGA,,,,,,0,,,,,,,,*66
$GPGSV,1,1,0,*65
$GLGSV,1,1,0,*79
$GPGSA,A,1,,,,,,,,,,,,,,,*1E
$GPVTG,,T,,M,,N,,K,N*2C
$GPRMC,,V,,,,,,,,,,N*53
$GPGGA,,,,,,0,,,,,,,,*66
$GPGSV,1,1,0,*65
$GLGSV,1,1,0,*79
$GPGSA,A,1,,,,,,,,,,,,,,,*1E
$GPVTG,,T,,M,,N,,K,N*2C
$GPRMC,,V,,,,,,,,,,N*53
$GPGGA,,,,,,0,,,,,,,,*66
$GPGSV,1,1,0,*65
$GLGSV,1,1,0,*79
$GPGSA,A,1,,,,,,,,,,,,,,,*1E
$GPVTG,,T,,M,,N,,K,N*2C
$GPRMC,,V,,,,,,,,,,N*53
$GPGGA,,,,,,0,,,,,,,,*66
$GPGSV,1,1,0,*65
$GLGSV,1,1,0,*79
$GPGSA,A,1,,,,,,,,,,,,,,,*1E
$GPVTG,,T,,M,,N,,K,N*2C
$GPRMC,,V,,,,,,,,,,N*53
$GPGGA,,,,,,0,,,,,,,,*66
$GPGSV,1,1,0,*65
$GLGSV,1,1,0,*79
$GPGSA,A,1,,,,,,,,,,,,,,,*1E
$GPVTG,,T,,M,,N,,K,N*2C
$GPRMC,,V,,,,,,,,,,N*53
$GPGGA,,,,,,0,,,,,,,,*66
$GPGSV,1,1,01,12,48,109,22*4F
$GLGSV,1,1,0,*79
$GPGSA,A,1,,,,,,,,,,,,,,,*1E
$GPVTG,,T,,M,,N,,K,N*2C
$GPRMC,,V,,,,,,,,,,N*53
$GPGGA,,,,,,0,,,,,,,,*66
$GPGSV,1,1,01,12,48,109,22*4F
$GLGSV,1,1,0,*79
$GPGSA,A,1,,,,,,,,,,,,,,,*1E
$GPVTG,,T,,M,,N,,K,N*2C
$GPRMC,,V,,,,,,,,,,N*53
$GPGGA,,,,,,0,,,,,,,,*66
$GPGSV,1,1,01,12,48,109,22*4F
$GLGSV,1,1,0,*79
$GPGSA,A,1,,,,,,,,,,,,,,,*1E
$GPVTG,,T,,M,,N,,K,N*2C
$GPRMC,,V,,,,,,,,,,N*53
$GPGGA,,,,,,0,,,,,,,,*66
$GPGSV,1,1,02,12,48,109,22,21,27,219,32*71
$GLGSV,1,1,0,*79
$GPGSA,A,1,,,,,,,,,,,,,,,*1E
$GPVTG,,T,,M,,N,,K,N*2C
$GPRMC,,V,,,,,,,,,,N*53
$GPGGA,,,,,,0,,,,,,,,*66
$GPGSV,1,1,02,12,48,109,34,21,27,219,36*72
$GLGSV,1,1,0,*79
$GPGSA,A,1,,,,,,,,,,,,,,,*1E
$GPVTG,,T,,M,,N,,K,N*2C
$GPRMC,,V,,,,,,,,,,N*53
$GPGGA,,,,,,0,,,,,,,,*66
$GPGSV,1,1,02,12,48,109,32,21,27,219,34*76
$GLGSV,1,1,01,80,00,000,32*5D
$GPGSA,A,1,,,,,,,,,,,,,,,*1E
$GPVTG,,T,,M,,N,,K,N*2C
$GPRMC,,V,,,,,,,,,,N*53
$GPGGA,,,,,,0,,,,,,,,*66
$GPGSV,1,1,04,12,48,109,35,20,25,150,33,21,27,219,30,25,76,029,29*74
$GLGSV,1,1,01,80,00,000,30*5F
$GPGSA,A,1,,,,,,,,,,,,,,,*1E
$GPVTG,,T,,M,,N,,K,N*2C
$GPRMC,,V,,,,,,,,,,N*53
$GPGGA,,,,,,0,,,,,,,,*66
$GPGSV,2,1,05,12,48,109,31,20,25,150,30,21,27,219,33,24,09,172,24*79
$GPGSV,2,2,05,25,76,029,32*40
$GLGSV,1,1,02,80,00,000,27,84,37,272,27*60
$GPGSA,A,1,,,,,,,,,,,,,,,*1E
$GPVTG,,T,,M,,N,,K,N*2C
$GPRMC,,V,,,,,,,,,,N*53
$GPGGA,,,,,,0,,,,,,,,*66
$GPGSV,2,1,05,12,48,109,31,20,25,150,30,21,27,219,33,24,09,172,24*79
$GPGSV,2,2,05,25,76,029,32*40
$GLGSV,1,1,02,80,00,000,27,84,37,272,27*60
$GPGSA,A,1,,,,,,,,,,,,,,,*1E
$GPVTG,,T,,M,,N,,K,N*2C
$GPRMC,,V,,,,,,,,,,N*53
$GPGGA,,,,,,0,,,,,,,,*66
$GPGSV,2,1,06,05,28,095,22,12,48,111,31,20,25,150,29,21,26,219,34*73
$GPGSV,2,2,06,24,08,172,24,25,77,032,31*77
$GLGSV,1,1,02,80,00,000,32,84,37,271,28*68
$GPGSA,A,1,,,,,,,,,,,,,,,*1E
$GPVTG,,T,,M,,N,,K,N*2C
$GPRMC,,V,,,,,,,,,,N*53
$GPGGA,,,,,,0,,,,,,,,*66
$GPGSV,2,1,07,05,28,095,29,12,48,111,34,20,25,150,30,21,26,219,36*76
$GPGSV,2,2,07,24,08,172,25,25,77,032,31,29,56,322,33*4C
$GLGSV,2,1,05,73,73,261,34,80,00,000,30,84,37,271,29,83,52,357,20*62
$GLGSV,2,2,05,68,09,108,28*54
$GPGSA,A,3,05,12,20,21,24,25,29,,,,,,1.3,1.0,0.9*35
$GPVTG,,T,,M,0.0,N,0.0,K,D*26
$GPRMC,160300,A,3206.384693,N,03512.261996,E,0.0,,030516,3.0,E,D*34
$GPGGA,160300,3206.384693,N,03512.261996,E,2,07,1.0,634.0,M,19.0,M,,*48
$GPGSV,3,1,09,02,27,043,18,05,28,095,28,12,48,111,33,20,25,150,31*7F
$GPGSV,3,2,09,21,26,219,32,24,08,172,28,25,77,032,31,29,56,322,33*72
$GPGSV,3,3,09,31,26,305,21*43
$GLGSV,2,1,07,74,29,326,18,73,73,261,34,82,11,045,18,80,00,000,28*65
$GLGSV,2,2,07,84,37,271,28,83,52,357,27,68,09,108,28*58
$GPGSA,A,3,02,05,12,20,21,24,25,29,31,,,,1.0,0.7,0.7*3E
$GPVTG,,T,,M,0.0,N,0.0,K,D*26
$GPRMC,160301,A,3206.382747,N,03512.261031,E,0.0,,030516,3.0,E,D*3F
$GPGGA,160301,3206.382747,N,03512.261031,E,2,09,0.7,646.0,M,19.0,M,,*4E
$GPGSV,3,1,09,02,27,043,19,05,28,095,26,12,48,111,33,20,25,150,31*70
$GPGSV,3,2,09,21,26,219,34,24,08,172,20,25,77,032,32,29,56,322,33*7F
$GPGSV,3,3,09,31,26,305,22*40
$GLGSV,2,1,08,74,29,326,18,73,73,261,33,82,11,045,18,80,00,000,28*6D
$GLGSV,2,2,08,84,37,271,28,83,52,357,34,67,10,057,18,68,09,108,32*65
$GPGSA,A,3,02,05,12,20,21,24,25,29,31,,,,1.0,0.7,0.7*3E
$GPVTG,237.3,T,237.3,M,1.9,N,3.4,K,D*29
$GPRMC,160302,A,3206.379517,N,03512.260634,E,1.9,237.3,030516,3.0,E,D*1E
$GPGGA,160302,3206.379517,N,03512.260634,E,2,09,0.7,659.0,M,19.0,M,,*42
$GPGSV,3,1,09,02,27,043,18,05,28,095,27,12,48,111,32,20,25,150,35*75
$GPGSV,3,2,09,21,26,219,33,24,08,172,20,25,77,032,32,29,56,322,34*7F
$GPGSV,3,3,09,31,26,305,27*45
$GLGSV,2,1,08,74,29,326,16,73,73,261,33,82,11,045,17,80,00,000,23*67
$GLGSV,2,2,08,84,37,271,30,83,52,357,32,67,10,057,18,68,09,108,29*60
$GPGSA,A,3,02,05,12,20,21,24,25,29,31,,,,1.0,0.7,0.7*3E
$GPVTG,254.0,T,254.0,M,2.0,N,3.7,K,D*20
$GPRMC,160303,A,3206.378645,N,03512.260056,E,2.0,254.0,030516,3.0,E,D*14
$GPGGA,160303,3206.378645,N,03512.260056,E,2,09,0.7,662.0,M,19.0,M,,*4C
$GPGSV,3,1,09,02,27,043,19,05,28,095,23,12,48,111,28,20,25,150,33*7D
$GPGSV,3,2,09,21,26,219,30,24,08,172,19,25,77,032,32,29,56,322,35*77
$GPGSV,3,3,09,31,26,305,29*4B
$GLGSV,2,1,08,74,29,326,17,73,73,261,34,82,11,045,17,80,00,000,28*6A
$GLGSV,2,2,08,84,37,271,28,83,52,357,34,67,10,057,17,68,09,108,24*6D
$GPGSA,A,3,02,05,12,20,21,24,25,29,31,,,,1.0,0.7,0.7*3E
$GPVTG,279.0,T,279.0,M,1.2,N,2.2,K,D*25
$GPRMC,160304,A,3206.378539,N,03512.259462,E,1.2,279.0,030516,3.0,E,D*1C
$GPGGA,160304,3206.378539,N,03512.259462,E,2,09,0.7,662.0,M,19.0,M,,*4A
$GPGSV,3,1,09,02,27,043,19,05,28,095,24,12,48,111,26,20,25,150,28*7E
$GPGSV,3,2,09,21,26,219,32,24,08,172,20,25,77,032,34,29,56,322,35*79
$GPGSV,3,3,09,31,26,305,31*42
$GLGSV,2,1,08,74,29,326,18,73,73,261,34,82,11,045,17,80,00,000,27*6A
$GLGSV,2,2,08,84,37,271,28,83,52,357,36,67,10,057,16,68,09,108,22*68
$GPGSA,A,3,02,05,12,20,21,24,25,29,31,,,,1.0,0.7,0.7*3E
$GPVTG,279.3,T,279.3,M,2.0,N,3.7,K,D*20
$GPRMC,160305,A,3206.379452,N,03512.258793,E,2.0,279.3,030516,3.0,E,D*1E
$GPGGA,160305,3206.379452,N,03512.258793,E,2,09,0.7,661.0,M,19.0,M,,*49
$GPGSV,3,1,09,02,27,043,18,05,28,095,25,12,48,111,25,20,25,150,31*75
$GPGSV,3,2,09,21,26,219,31,24,08,172,19,25,77,032,32,29,56,322,33*70
$GPGSV,3,3,09,31,26,305,29*4B
$GLGSV,2,1,08,74,29,326,18,73,73,261,32,82,11,045,16,80,00,000,29*63
$GLGSV,2,2,08,84,37,271,31,83,52,357,33,67,10,057,16,68,09,108,22*65
$GPGSA,A,3,02,05,12,20,21,24,25,29,31,,,,1.0,0.7,0.7*3E
$GPVTG,273.3,T,273.3,M,2.4,N,4.5,K,D*21
$GPRMC,160306,A,3206.378730,N,03512.258116,E,2.4,273.3,030516,3.0,E,D*1E
$GPGGA,160306,3206.378730,N,03512.258116,E,2,09,0.7,662.0,M,19.0,M,,*44
$GPGSV,3,1,09,02,27,043,18,05,28,095,25,12,48,111,28,20,25,150,30*79
$GPGSV,3,2,09,21,26,219,31,24,08,172,21,25,77,032,30,29,56,322,34*7E
$GPGSV,3,3,09,31,26,305,31*42
$GLGSV,2,1,08,74,29,326,18,73,73,261,33,82,11,045,16,80,00,000,26*6D
$GLGSV,2,2,08,84,37,271,30,83,52,357,33,67,10,057,16,68,09,108,20*66
$GPGSA,A,3,02,05,12,20,21,24,25,29,31,,,,1.0,0.7,0.7*3E
$GPVTG,273.5,T,273.5,M,1.4,N,2.7,K,D*26
$GPRMC,160307,A,3206.379108,N,03512.257679,E,1.4,273.5,030516,3.0,E,D*17
$GPGGA,160307,3206.379108,N,03512.257679,E,2,09,0.7,660.0,M,19.0,M,,*4A
$GPGSV,3,1,09,02,27,043,18,05,28,095,23,12,48,111,28,20,25,150,33*7C
$GPGSV,3,2,09,21,26,219,32,24,08,172,21,25,77,032,31,29,56,322,35*7D
$GPGSV,3,3,09,31,26,305,31*42
$GLGSV,2,1,08,74,29,326,18,73,73,261,34,82,11,045,16,80,00,000,29*65
$GLGSV,2,2,08,84,37,271,31,83,52,357,32,67,10,057,16,68,09,108,25*63
$GPGSA,A,3,02,05,12,20,21,24,25,29,31,,,,1.0,0.7,0.7*3E
$GPVTG,275.7,T,275.7,M,2.4,N,4.4,K,D*20
$GPRMC,160308,A,3206.379067,N,03512.256640,E,2.4,275.7,030516,3.0,E,D*1C
$GPGGA,160308,3206.379067,N,03512.256640,E,2,09,0.7,661.0,M,19.0,M,,*47
$GPGSV,3,1,09,02,27,043,18,05,28,095,24,12,48,111,28,20,25,150,32*7A
$GPGSV,3,2,09,21,26,219,30,24,08,172,20,25,77,032,30,29,56,322,34*7E
$GPGSV,3,3,09,31,26,305,31*42
$GLGSV,2,1,08,74,29,326,28,73,73,261,34,82,11,045,16,80,00,000,28*67
$GLGSV,2,2,08,84,37,271,26,83,52,357,30,67,10,057,15,68,09,108,25*64
$GPGSA,A,3,02,05,12,20,21,24,25,29,31,,,,1.0,0.7,0.7*3E
$GPVTG,275.7,T,275.7,M,2.2,N,4.0,K,D*22
$GPRMC,160309,A,3206.379247,N,03512.256204,E,2.2,275.7,030516,3.0,E,D*1F
$GPGGA,160309,3206.379247,N,03512.256204,E,2,09,0.7,660.0,M,19.0,M,,*43
$GPGSV,3,1,09,02,27,043,18,05,28,095,26,12,48,111,29,20,25,150,31*7A
$GPGSV,3,2,09,21,26,219,34,24,08,172,20,25,77,032,30,29,56,322,31*7F
$GPGSV,3,3,09,31,26,305,33*40
$GLGSV,2,1,08,74,29,326,30,73,73,261,34,82,11,045,16,80,00,000,28*6E
$GLGSV,2,2,08,84,37,271,32,83,52,357,32,67,10,057,15,68,09,108,25*63
$GPGSA,A,3,02,05,12,20,21,24,25,29,31,,,,1.0,0.7,0.7*3E
$GPVTG,275.7,T,275.7,M,2.0,N,3.6,K,D*21
$GPRMC,160310,A,3206.379331,N,03512.255467,E,2.0,275.7,030516,3.0,E,D*15
$GPGGA,160310,3206.379331,N,03512.255467,E,2,09,0.7,659.0,M,19.0,M,,*41
$GPGSV,3,1,09,02,27,043,16,05,28,095,24,12,48,111,28,20,25,150,31*77
$GPGSV,3,2,09,21,26,219,34,24,08,172,20,25,77,032,30,29,56,322,31*7F
$GPGSV,3,3,09,31,26,305,31*42
$GLGSV,2,1,08,74,29,326,28,73,73,261,33,82,11,045,16,80,00,000,27*6F
$GLGSV,2,2,08,84,37,271,32,83,52,357,29,67,10,057,15,68,09,108,26*6A
$GPGSA,A,3,02,05,12,20,21,24,25,29,31,,,,1.0,0.7,0.7*3E
$GPVTG,275.8,T,275.8,M,2.6,N,4.8,K,D*2E
$GPRMC,160311,A,3206.379930,N,03512.254565,E,2.6,275.8,030516,3.0,E,D*14
$GPGGA,160311,3206.379930,N,03512.254565,E,2,09,0.7,657.0,M,19.0,M,,*47
$GPGSV,3,1,09,02,27,043,19,05,28,095,25,12,48,111,30,20,25,150,32*73
$GPGSV,3,2,09,21,26,219,33,24,08,172,18,25,77,032,30,29,56,322,31*73
$GPGSV,3,3,09,31,26,305,30*43
$GLGSV,2,1,08,74,29,326,32,73,73,261,33,82,11,045,16,80,00,000,27*64
$GLGSV,2,2,08,84,37,271,31,83,52,357,29,67,10,057,15,68,09,108,24*6B
$GPGSA,A,3,02,05,12,20,21,24,25,29,31,,,,1.0,0.7,0.7*3E
$GPVTG,275.7,T,275.7,M,2.2,N,4.0,K,D*22
$GPRMC,160312,A,3206.379670,N,03512.253691,E,2.2,275.7,030516,3.0,E,D*18
$GPGGA,160312,3206.379670,N,03512.253691,E,2,09,0.7,658.0,M,19.0,M,,*4F
$GPGSV,3,1,09,02,27,043,17,05,28,095,26,12,48,111,28,20,25,150,33*76
$GPGSV,3,2,09,21,26,219,34,24,08,172,17,25,77,032,33,29,56,322,34*7D
$GPGSV,3,3,09,31,26,305,30*43
$GLGSV,2,1,08,74,29,326,32,73,73,261,33,82,11,045,16,80,00,000,29*6A
$GLGSV,2,2,08,84,37,271,30,83,52,357,32,67,10,057,15,68,09,108,26*62
$GPGSA,A,3,02,05,12,20,21,24,25,29,31,,,,1.0,0.7,0.7*3E
$GPVTG,277.5,T,277.5,M,2.1,N,3.9,K,D*2F
$GPRMC,160313,A,3206.379656,N,03512.253000,E,2.1,277.5,030516,3.0,E,D*10
$GPGGA,160313,3206.379656,N,03512.253000,E,2,09,0.7,658.0,M,19.0,M,,*44
$GPGSV,3,1,09,02,27,043,17,05,28,095,24,12,48,111,31,20,25,150,34*7B
$GPGSV,3,2,09,21,26,219,34,24,08,172,17,25,77,032,36,29,56,322,36*7A
$GPGSV,3,3,09,31,26,305,31*42
$GLGSV,2,1,08,74,29,326,30,73,73,261,35,82,11,045,16,80,00,000,30*66
$GLGSV,2,2,08,84,37,271,33,83,52,357,37,67,10,057,15,68,09,108,24*66
$GPGSA,A,3,02,05,12,20,21,24,25,29,31,,,,1.0,0.7,0.7*3E
$GPVTG,277.3,T,277.3,M,3.1,N,5.7,K,D*26
$GPRMC,160314,A,3206.379554,N,03512.252095,E,3.1,277.3,030516,3.0,E,D*1C
$GPGGA,160314,3206.379554,N,03512.252095,E,2,09,0.7,657.0,M,19.0,M,,*40
$GPGSV,2,1,07,05,28,095,26,12,48,111,29,20,25,150,32,21,26,219,34*75
$GPGSV,2,2,07,25,77,032,36,29,56,322,36,31,26,305,34*44
$GLGSV,2,1,06,74,29,326,32,73,73,261,36,80,00,000,26,84,37,271,30*6D
$GLGSV,2,2,06,83,52,357,35,68,09,108,30*65
$GPGSA,A,3,05,12,20,21,25,29,31,,,,,,1.0,0.7,0.7*3A
$GPVTG,259.0,T,259.0,M,2.9,N,5.4,K,D*2C
$GPRMC,160315,A,3206.379365,N,03512.251062,E,2.9,259.0,030516,3.0,E,D*14
$GPGGA,160315,3206.379365,N,03512.251062,E,2,07,0.7,657.0,M,19.0,M,,*40
$GPGSV,2,1,06,05,28,095,28,20,25,150,28,21,26,219,34,25,77,032,34*75
$GPGSV,2,2,06,29,56,322,33,31,26,305,29*7F
$GLGSV,2,1,06,74,29,326,30,73,73,261,32,80,00,000,29,84,37,271,27*62
$GLGSV,2,2,06,83,52,357,34,68,09,108,25*60
$GPGSA,A,3,05,20,21,25,29,31,,,,,,,1.0,0.7,0.7*39
$GPVTG,277.3,T,277.3,M,2.4,N,4.5,K,D*21
$GPRMC,160316,A,3206.379176,N,03512.250235,E,2.4,277.3,030516,3.0,E,D*14
$GPGGA,160316,3206.379176,N,03512.250235,E,2,06,0.7,657.0,M,19.0,M,,*43
$GPGSV,2,1,07,05,28,095,24,12,48,111,25,20,25,150,32,21,26,219,27*79
$GPGSV,2,2,07,25,77,032,31,29,56,322,31,31,26,305,29*48
$GLGSV,2,1,06,74,29,326,27,73,73,261,35,80,00,000,26,84,37,271,31*6B
$GLGSV,2,2,06,83,52,357,30,68,09,108,27*66
$GPGSA,A,3,05,12,20,21,25,29,31,,,,,,1.0,0.7,0.7*3A
$GPVTG,253.2,T,253.2,M,2.8,N,5.1,K,D*28
$GPRMC,160317,A,3206.378991,N,03512.249529,E,2.8,253.2,030516,3.0,E,D*1C
$GPGGA,160317,3206.378991,N,03512.249529,E,2,07,0.7,656.0,M,19.0,M,,*40
$GPGSV,2,1,07,05,28,095,24,12,48,111,28,20,25,150,29,21,26,219,30*78
$GPGSV,2,2,07,25,77,032,31,29,56,322,29,31,26,305,33*4A
$GLGSV,2,1,06,74,29,326,35,73,73,261,33,80,00,000,26,84,37,271,29*67
$GLGSV,2,2,06,83,52,357,25,68,09,108,26*63
$GPGSA,A,3,05,12,20,21,25,29,31,,,,,,1.0,0.7,0.7*3A
$GPVTG,252.3,T,252.3,M,2.7,N,4.9,K,D*2E
$GPRMC,160318,A,3206.378842,N,03512.248791,E,2.7,252.3,030516,3.0,E,D*13
$GPGGA,160318,3206.378842,N,03512.248791,E,2,07,0.7,656.0,M,19.0,M,,*40
$GPGSV,2,1,08,02,27,043,23,05,28,095,25,12,48,111,31,20,25,150,34*7D
$GPGSV,2,2,08,21,26,219,37,25,77,032,29,29,56,322,33,31,26,305,34*79
$GLGSV,2,1,06,74,29,326,28,73,73,261,36,80,00,000,31,84,37,271,32*62
$GLGSV,2,2,06,83,52,357,30,68,09,108,27*66
$GPGSA,A,3,02,05,12,20,21,25,29,31,,,,,1.1,0.8,0.8*39
$GPVTG,250.9,T,250.9,M,1.8,N,3.4,K,D*28
$GPRMC,160319,A,3206.378708,N,03512.248119,E,1.8,250.9,030516,3.0,E,D*11
$GPGGA,160319,3206.378708,N,03512.248119,E,2,08,0.8,656.0,M,19.0,M,,*46
$GPGSV,2,1,08,02,27,043,24,05,28,095,26,12,48,111,29,20,25,150,34*70
$GPGSV,2,2,08,21,26,219,36,25,77,032,26,29,56,322,32,31,26,305,33*71
$GLGSV,2,1,05,74,29,326,27,73,73,261,28,80,00,000,26,84,37,271,25*61
$GLGSV,2,2,05,83,52,357,28*57
$GPGSA,A,3,02,05,12,20,21,25,29,31,,,,,1.1,0.8,0.8*39
$GPVTG,255.2,T,255.2,M,1.8,N,3.4,K,D*28
$GPRMC,160320,A,3206.378657,N,03512.247582,E,1.8,255.2,030516,3.0,E,D*17
$GPGGA,160320,3206.378657,N,03512.247582,E,2,08,0.8,656.0,M,19.0,M,,*4E
$GPGSV,2,1,08,02,27,043,28,05,28,095,24,12,48,111,25,20,25,150,29*7E
$GPGSV,2,2,08,21,26,219,32,25,77,032,27,29,56,322,33,31,26,305,32*74
$GLGSV,2,1,05,74,29,326,31,73,73,261,32,84,37,271,26,83,52,357,30*6C
$GLGSV,2,2,05,68,09,108,24*58
$GPGSA,A,3,02,05,12,20,21,25,29,31,,,,,1.1,0.8,0.8*39
$GPVTG,,T,,M,0.0,N,0.0,K,D*26
$GPRMC,160321,A,3206.378827,N,03512.247496,E,0.0,,030516,3.0,E,D*3C
$GPGGA,160321,3206.378827,N,03512.247496,E,2,08,0.8,656.0,M,19.0,M,,*42
$GPGSV,2,1,05,20,25,150,28,21,26,219,33,25,77,032,33,29,56,322,30*77
$GPGSV,2,2,05,31,26,305,31*4E
$GLGSV,1,1,04,74,29,326,26,73,73,261,32,84,37,271,30,83,52,357,28*66
$GPGSA,A,3,20,21,25,29,31,,,,,,,,1.1,0.8,0.8*3D
$GPVTG,285.2,T,285.2,M,1.9,N,3.6,K,D*2B
$GPRMC,160322,A,3206.378966,N,03512.247087,E,1.9,285.2,030516,3.0,E,D*14
$GPGGA,160322,3206.378966,N,03512.247087,E,2,05,0.8,656.0,M,19.0,M,,*4C
$GPGSV,2,1,06,02,27,043,23,20,25,150,31,21,26,219,32,25,77,032,34*73
$GPGSV,2,2,06,29,56,322,34,31,26,305,34*74
$GLGSV,2,1,06,74,29,326,34,73,73,261,33,80,00,000,32,84,37,271,33*68
$GLGSV,2,2,06,83,52,357,31,68,09,108,23*63
$GPGSA,A,3,02,20,21,25,29,31,,,,,,,1.1,0.8,0.8*3F
$GPVTG,285.3,T,285.3,M,2.2,N,4.1,K,D*23
$GPRMC,160323,A,3206.379055,N,03512.246328,E,2.2,285.3,030516,3.0,E,D*13
$GPGGA,160323,3206.379055,N,03512.246328,E,2,06,0.8,656.0,M,19.0,M,,*41
$GPGSV,2,1,06,05,28,095,22,20,25,150,28,21,26,219,32,25,77,032,30*7D
$GPGSV,2,2,06,29,56,322,36,31,26,305,37*75
$GLGSV,2,1,06,74,29,326,32,73,73,261,35,80,00,000,26,84,37,271,34*6A
$GLGSV,2,2,06,83,52,357,33,68,09,108,28*6A
$GPGSA,A,3,05,20,21,25,29,31,,,,,,,1.1,0.8,0.8*38
$GPVTG,285.3,T,285.3,M,1.6,N,3.0,K,D*22
$GPRMC,160324,A,3206.379307,N,03512.245775,E,1.6,285.3,030516,3.0,E,D*18
$GPGGA,160324,3206.379307,N,03512.245775,E,2,06,0.8,656.0,M,19.0,M,,*4D
$GPGSV,2,1,08,02,27,043,31,05,28,095,29,12,48,111,25,20,25,150,29*7B
$GPGSV,2,2,08,21,26,219,32,25,77,032,34,29,56,322,34,31,26,305,27*75
$GLGSV,2,1,06,74,29,326,33,73,73,261,34,80,00,000,30,84,37,271,29*61
$GLGSV,2,2,06,83,52,357,35,68,09,108,23*67
$GPGSA,A,3,02,05,12,20,21,25,29,31,,,,,1.1,0.8,0.8*39
$GPVTG,285.2,T,285.2,M,1.9,N,3.6,K,D*2B
$GPRMC,160325,A,3206.379584,N,03512.245286,E,1.9,285.2,030516,3.0,E,D*13
$GPGGA,160325,3206.379584,N,03512.245286,E,2,08,0.8,656.0,M,19.0,M,,*46
$GPGSV,2,1,08,02,27,043,31,05,28,095,28,12,48,111,26,20,25,150,26*76
$GPGSV,2,2,08,21,26,219,35,25,77,032,33,29,56,322,39,31,26,305,37*79
$GLGSV,1,1,04,74,29,326,33,73,73,261,29,84,37,271,35,83,52,357,31*65
$GPGSA,A,3,02,05,12,20,21,25,29,31,,,,,1.1,0.8,0.8*39
$GPVTG,285.1,T,285.1,M,2.3,N,4.3,K,D*20
$GPRMC,160326,A,3206.379912,N,03512.244643,E,2.3,285.1,030516,3.0,E,D*15
$GPGGA,160326,3206.379912,N,03512.244643,E,2,08,0.8,656.0,M,19.0,M,,*4A
$GPGSV,2,1,06,02,27,043,30,05,28,095,30,21,26,219,35,25,77,032,32*73
$GPGSV,2,2,06,29,56,322,37,31,26,305,39*7A
$GLGSV,2,1,06,74,29,326,31,73,73,261,29,80,00,000,26,84,37,271,33*63
$GLGSV,2,2,06,83,52,357,31,68,09,108,25*65
$GPGSA,A,3,02,05,21,25,29,31,,,,,,,1.1,0.8,0.8*38
$GPVTG,284.9,T,284.9,M,2.2,N,4.1,K,D*23
$GPRMC,160327,A,3206.380128,N,03512.243920,E,2.2,284.9,030516,3.0,E,D*16
$GPGGA,160327,3206.380128,N,03512.243920,E,2,06,0.8,657.0,M,19.0,M,,*4E
$GPGSV,2,1,08,02,27,043,32,05,28,095,25,12,48,111,28,20,25,150,24*74
$GPGSV,2,2,08,21,26,219,27,25,77,032,36,29,56,322,34,31,26,305,41*73
$GLGSV,2,1,05,74,29,326,29,73,73,261,33,84,37,271,32,83,52,357,36*67
$GLGSV,2,2,05,68,09,108,27*5B
$GPGSA,A,3,02,05,12,20,21,25,29,31,,,,,1.1,0.8,0.8*39
$GPVTG,284.8,T,284.8,M,1.2,N,2.3,K,D*24
$GPRMC,160328,A,3206.380308,N,03512.243343,E,1.2,284.8,030516,3.0,E,D*14
$GPGGA,160328,3206.380308,N,03512.243343,E,2,08,0.8,657.0,M,19.0,M,,*40
$GPGSV,2,1,08,02,27,043,27,05,28,095,31,12,48,111,32,20,25,150,28*72
$GPGSV,2,2,08,21,26,219,24,25,77,032,34,29,56,322,37,31,26,305,33*74
$GLGSV,2,1,05,74,29,326,36,73,73,261,30,80,00,000,23,84,37,271,31*68
$GLGSV,2,2,05,83,52,357,32*5C
$GPGSA,A,3,02,05,12,20,21,25,29,31,,,,,1.1,0.8,0.8*39
$GPVTG,284.8,T,284.8,M,1.5,N,2.8,K,D*28
$GPRMC,160329,A,3206.380600,N,03512.242957,E,1.5,284.8,030516,3.0,E,D*11
$GPGGA,160329,3206.380600,N,03512.242957,E,2,08,0.8,657.0,M,19.0,M,,*42
$GPGSV,2,1,08,02,27,043,33,05,28,095,28,12,48,111,33,20,25,150,31*76
$GPGSV,2,2,08,21,26,219,25,25,77,032,33,29,56,322,37,31,26,305,38*79
$GLGSV,1,1,04,74,29,326,34,73,73,261,34,84,37,271,31,83,52,357,36*6D
$GPGSA,A,3,02,05,12,20,21,25,29,31,,,,,1.1,0.8,0.8*39
$GPVTG,356.8,T,356.8,M,2.3,N,4.2,K,D*21
$GPRMC,160330,A,3206.381103,N,03512.242611,E,2.3,356.8,030516,3.0,E,D*1A
$GPGGA,160330,3206.381103,N,03512.242611,E,2,08,0.8,658.0,M,19.0,M,,*4D
$GPGSV,2,1,08,02,27,043,27,05,28,095,29,12,48,111,32,20,25,150,30*72
$GPGSV,2,2,08,21,26,219,29,25,77,032,33,29,56,322,35,31,26,305,32*7D
$GLGSV,1,1,04,74,29,326,38,73,73,261,32,84,37,271,31,83,52,357,37*66
$GPGSA,A,3,02,05,12,20,21,25,29,31,,,,,1.1,0.8,0.8*39
$GPVTG,356.9,T,356.9,M,2.4,N,4.5,K,D*21
$GPRMC,160331,A,3206.381676,N,03512.242452,E,2.4,356.9,030516,3.0,E,D*1D
$GPGGA,160331,3206.381676,N,03512.242452,E,2,08,0.8,658.0,M,19.0,M,,*4C
$GPGSV,2,1,08,02,27,043,25,05,28,095,30,12,48,111,30,20,25,150,26*7D
$GPGSV,2,2,08,21,26,219,28,25,77,032,32,29,56,322,32,31,26,305,32*7A
$GLGSV,2,1,05,74,29,326,35,73,73,261,34,84,37,271,29,83,52,357,37*66
$GLGSV,2,2,05,68,09,108,25*59
$GPGSA,A,3,02,05,12,20,21,25,29,31,,,,,1.1,0.8,0.8*39
$GPVTG,356.8,T,356.8,M,2.3,N,4.3,K,D*20
$GPRMC,160332,A,3206.382259,N,03512.242330,E,2.3,356.8,030516,3.0,E,D*11
$GPGGA,160332,3206.382259,N,03512.242330,E,2,08,0.8,659.0,M,19.0,M,,*47
$GPGSV,2,1,08,02,27,043,24,05,28,095,34,12,48,111,32,20,25,150,30*7D
$GPGSV,2,2,08,21,26,219,24,25,77,032,34,29,56,322,36,31,26,305,35*73
$GLGSV,2,1,05,74,29,326,38,73,73,261,33,84,37,271,27,83,52,357,36*63
$GLGSV,2,2,05,68,09,108,31*5C
$GPGSA,A,3,02,05,12,20,21,25,29,31,,,,,1.1,0.8,0.8*39
$GPVTG,19.1,T,19.1,M,2.6,N,4.9,K,D*2F
$GPRMC,160333,A,3206.382935,N,03512.242350,E,2.6,19.1,030516,3.0,E,D*23
$GPGGA,160333,3206.382935,N,03512.242350,E,2,08,0.8,659.0,M,19.0,M,,*41
$GPGSV,2,1,08,02,27,043,26,05,28,095,30,12,48,111,36,20,25,150,27*79
$GPGSV,2,2,08,21,26,219,28,25,77,032,34,29,56,322,36,31,26,305,32*78
$GLGSV,2,1,05,74,29,326,39,73,73,261,28,84,37,271,28,83,52,357,37*66
$GLGSV,2,2,05,68,09,108,31*5C
$GPGSA,A,3,02,05,12,20,21,25,29,31,,,,,1.1,0.8,0.8*39
$GPVTG,18.2,T,18.2,M,2.1,N,3.9,K,D*2F
$GPRMC,160334,A,3206.383600,N,03512.242342,E,2.1,18.2,030516,3.0,E,D*2A
$GPGGA,160334,3206.383600,N,03512.242342,E,2,08,0.8,659.0,M,19.0,M,,*4D
$GPGSV,2,1,08,02,27,043,27,05,28,095,34,12,48,111,33,20,25,150,27*79
$GPGSV,2,2,08,21,26,219,27,25,77,032,30,29,56,322,35,31,26,305,32*70
$GLGSV,2,1,05,74,29,326,29,73,73,261,27,84,37,271,29,83,52,357,36*68
$GLGSV,2,2,05,68,09,108,28*54
$GPGSA,A,3,02,05,12,20,21,25,29,31,,,,,1.1,0.8,0.8*39
$GPVTG,18.6,T,18.6,M,3.1,N,5.7,K,D*26
$GPRMC,160335,A,3206.384358,N,03512.242376,E,3.1,18.6,030516,3.0,E,D*26
$GPGGA,160335,3206.384358,N,03512.242376,E,2,08,0.8,659.0,M,19.0,M,,*44
$GPGSV,2,1,08,02,27,043,28,05,28,095,32,12,48,111,32,20,25,150,26*70
$GPGSV,2,2,08,21,26,219,29,25,77,032,36,29,56,322,30,31,26,305,39*76
$GLGSV,2,1,05,74,29,326,28,73,73,261,30,84,37,271,29,83,52,357,36*6F
$GLGSV,2,2,05,68,09,108,32*5F
$GPGSA,A,3,02,05,12,20,21,25,29,31,,,,,1.1,0.8,0.8*39
$GPVTG,18.6,T,18.6,M,2.6,N,4.8,K,D*2E
$GPRMC,160336,A,3206.385178,N,03512.242467,E,2.6,18.6,030516,3.0,E,D*25
$GPGGA,160336,3206.385178,N,03512.242467,E,2,08,0.8,659.0,M,19.0,M,,*41
$GPGSV,2,1,07,02,27,043,23,05,28,095,25,12,48,111,30,20,25,150,28*7E
$GPGSV,2,2,07,25,77,032,32,29,56,322,28,31,26,305,35*4E
$GLGSV,2,1,05,74,29,326,30,73,73,261,30,84,37,271,24,83,52,357,36*6B
$GLGSV,2,2,05,68,09,108,30*5D
$GPGSA,A,3,02,05,12,20,25,29,31,,,,,,1.1,0.8,0.8*3A
$GPVTG,18.6,T,18.6,M,2.2,N,4.1,K,D*23
$GPRMC,160337,A,3206.385820,N,03512.242535,E,2.2,18.6,030516,3.0,E,D*22
$GPGGA,160337,3206.385820,N,03512.242535,E,2,07,0.8,659.0,M,19.0,M,,*4D
$GPGSV,2,1,07,02,27,043,25,05,28,095,25,12,48,111,34,20,25,150,30*75
$GPGSV,2,2,07,25,77,032,34,29,56,322,34,31,26,305,37*47
$GLGSV,2,1,06,74,29,326,33,73,73,261,32,82,11,045,24,84,37,271,30*69
$GLGSV,2,2,06,83,52,357,37,68,09,108,32*65
$GPGSA,A,3,02,05,12,20,25,29,31,,,,,,1.1,0.7,0.8*35
$GPVTG,20.6,T,20.6,M,2.0,N,3.8,K,D*2F
$GPRMC,160338,A,3206.386273,N,03512.242579,E,2.0,20.6,030516,3.0,E,D*23
$GPGGA,160338,3206.386273,N,03512.242579,E,2,07,0.7,658.0,M,19.0,M,,*4B
$GPGSV,2,1,05,12,48,111,31,20,25,150,30,25,77,032,32,29,56,322,36*78
$GPGSV,2,2,05,31,26,305,38*47
$GLGSV,2,1,05,74,29,326,31,73,73,261,31,84,37,271,28,83,52,357,39*68
$GLGSV,2,2,05,68,09,108,29*55
$GPGSA,A,3,12,20,25,29,31,,,,,,,,1.1,0.7,0.8*32
$GPVTG,21.7,T,21.7,M,3.2,N,5.9,K,D*2B
$GPRMC,160339,A,3206.386881,N,03512.242710,E,3.2,21.7,030516,3.0,E,D*2B
$GPGGA,160339,3206.386881,N,03512.242710,E,2,05,0.7,658.0,M,19.0,M,,*42
$GPGSV,2,1,06,02,27,043,26,12,48,111,26,20,25,150,31,25,77,032,32*76
$GPGSV,2,2,06,29,56,322,33,31,26,305,33*74
$GLGSV,1,1,04,74,29,326,32,73,73,261,28,84,37,271,25,83,52,357,33*66
$GPGSA,A,3,02,12,20,25,29,31,,,,,,,1.1,0.7,0.8*30
$GPVTG,23.7,T,23.7,M,3.0,N,5.5,K,D*25
$GPRMC,160340,A,3206.387677,N,03512.243003,E,3.0,23.7,030516,3.0,E,D*27
$GPGGA,160340,3206.387677,N,03512.243003,E,2,06,0.7,657.0,M,19.0,M,,*42
$GPGSV,2,1,06,02,27,043,30,20,25,150,32,21,26,219,26,25,77,032,33*70
$GPGSV,2,2,06,29,56,322,34,31,26,305,35*75
$GLGSV,1,1,03,74,29,326,35,73,73,261,29,83,52,357,32*5D
$GPGSA,A,3,02,20,21,25,29,31,,,,,,,1.1,0.7,0.8*30
$GPVTG,25.0,T,25.0,M,3.4,N,6.2,K,D*25
$GPRMC,160341,A,3206.388180,N,03512.243386,E,3.4,25.0,030516,3.0,E,D*2D
$GPGGA,160341,3206.388180,N,03512.243386,E,2,06,0.7,656.0,M,19.0,M,,*4C
$GPGSV,2,1,05,02,27,043,28,21,26,219,32,25,77,032,26,29,56,322,31*72
$GPGSV,2,2,05,31,26,305,33*4C
$GLGSV,1,1,04,74,29,326,31,73,73,261,28,82,11,045,30,83,52,357,34*61
$GPGSA,A,3,02,21,25,29,31,,,,,,,,1.1,0.7,0.8*32
$GPVTG,24.3,T,24.3,M,3.9,N,7.2,K,D*29
$GPRMC,160342,A,3206.388964,N,03512.243887,E,3.9,24.3,030516,3.0,E,D*29
$GPGGA,160342,3206.388964,N,03512.243887,E,2,05,0.7,657.0,M,19.0,M,,*45
$GPGSV,2,1,05,02,27,043,33,20,25,150,25,25,77,032,35,29,56,322,35*74
$GPGSV,2,2,05,31,26,305,35*4A
$GLGSV,2,1,05,74,29,326,37,73,73,261,30,82,11,045,36,84,37,271,29*67
$GLGSV,2,2,05,83,52,357,34*5A
$GPGSA,A,3,02,20,25,29,31,,,,,,,,1.1,0.7,0.8*33
$GPVTG,21.5,T,21.5,M,3.9,N,7.3,K,D*28
$GPRMC,160343,A,3206.389870,N,03512.244402,E,3.9,21.5,030516,3.0,E,D*28
$GPGGA,160343,3206.389870,N,03512.244402,E,2,05,0.7,657.0,M,19.0,M,,*47
$GPGSV,2,1,06,02,27,043,31,20,25,150,24,21,26,219,23,25,77,032,33*73
$GPGSV,2,2,06,29,56,322,31,31,26,305,35*70
$GLGSV,2,1,05,74,29,326,37,73,73,261,27,82,11,045,33,84,37,271,27*6A
$GLGSV,2,2,05,83,52,357,35*5B
$GPGSA,A,3,02,20,21,25,29,31,,,,,,,1.1,0.8,0.8*3F
$GPVTG,18.5,T,18.5,M,4.4,N,8.2,K,D*2C
$GPRMC,160344,A,3206.390909,N,03512.244659,E,4.4,18.5,030516,3.0,E,D*24
$GPGGA,160344,3206.390909,N,03512.244659,E,2,06,0.8,658.0,M,19.0,M,,*48
$GPGSV,2,1,06,02,27,043,30,12,48,111,23,21,26,219,24,25,77,032,32*7C
$GPGSV,2,2,06,29,56,322,34,31,26,305,35*75
$GLGSV,2,1,06,74,29,326,32,73,73,261,30,82,11,045,29,84,37,271,27*61
$GLGSV,2,2,06,83,52,357,37,67,10,057,30*6B
$GPGSA,A,3,02,12,21,25,29,31,,,,,,,1.1,0.8,0.8*3E
$GPVTG,16.6,T,16.6,M,3.8,N,7.0,K,D*2A
$GPRMC,160345,A,3206.391981,N,03512.244931,E,3.8,16.6,030516,3.0,E,D*23
$GPGGA,160345,3206.391981,N,03512.244931,E,2,06,0.8,657.0,M,19.0,M,,*46
$GPGSV,2,1,05,02,27,043,31,21,26,219,24,25,77,032,31,29,56,322,35*7F
$GPGSV,2,2,05,31,26,305,38*47
$GLGSV,2,1,06,74,29,326,34,73,73,261,26,82,11,045,31,84,37,271,27*69
$GLGSV,2,2,06,83,52,357,37,67,10,057,32*69
$GPGSA,A,3,02,21,25,29,31,,,,,,,,1.1,0.8,0.8*3D
$GPVTG,8.7,T,8.7,M,3.8,N,7.0,K,D*2A
$GPRMC,160346,A,3206.392969,N,03512.245155,E,3.8,8.7,030516,3.0,E,D*10
$GPGGA,160346,3206.392969,N,03512.245155,E,2,05,0.8,657.0,M,19.0,M,,*48
$GPGSV,1,1,04,02,27,043,26,25,77,032,30,29,56,322,32,31,26,305,32*77
$GLGSV,2,1,06,74,29,326,28,73,73,261,28,82,11,045,30,84,37,271,25*69
$GLGSV,2,2,06,83,52,357,34,67,10,057,31*69
$GPGSA,A,3,02,25,29,31,,,,,,,,,1.1,0.8,0.8*3E
$GPVTG,9.1,T,9.1,M,2.4,N,4.4,K,D*20
$GPRMC,160347,A,3206.393759,N,03512.245379,E,2.4,9.1,030516,3.0,E,D*1B
$GPGGA,160347,3206.393759,N,03512.245379,E,2,04,0.8,658.0,M,19.0,M,,*47
$GPGSV,2,1,05,02,27,043,34,21,26,219,24,25,77,032,32,29,56,322,33*7F
$GPGSV,2,2,05,31,26,305,37*48
$GLGSV,2,1,06,74,29,326,32,73,73,261,26,82,11,045,34,84,37,271,31*6D
$GLGSV,2,2,06,83,52,357,36,67,10,057,31*6B
$GPGSA,A,3,02,21,25,29,31,,,,,,,,1.1,0.8,0.8*3D
$GPVTG,9.1,T,9.1,M,2.1,N,3.8,K,D*2E
$GPRMC,160348,A,3206.394398,N,03512.245639,E,2.1,9.1,030516,3.0,E,D*1E
$GPGGA,160348,3206.394398,N,03512.245639,E,2,05,0.8,657.0,M,19.0,M,,*49
$GPGSV,2,1,06,02,27,043,33,05,28,095,28,21,26,219,27,25,77,032,35*7D
$GPGSV,2,2,06,29,56,322,34,31,26,305,36*76
$GLGSV,2,1,06,74,29,326,29,73,73,261,30,82,11,045,32,84,37,271,24*62
$GLGSV,2,2,06,83,52,357,36,67,10,057,35*6F
$GPGSA,A,3,02,05,21,25,29,31,,,,,,,1.1,0.8,0.8*38
$GPVTG,9.1,T,9.1,M,2.0,N,3.8,K,D*2F
$GPRMC,160349,A,3206.394948,N,03512.246004,E,2.0,9.1,030516,3.0,E,D*12
$GPGGA,160349,3206.394948,N,03512.246004,E,2,06,0.8,657.0,M,19.0,M,,*47
$GPGSV,2,1,07,02,27,043,30,05,28,095,29,12,48,111,25,21,26,219,26*76
$GPGSV,2,2,07,25,77,032,30,29,56,322,34,31,26,305,34*40
$GLGSV,2,1,06,74,29,326,34,73,73,261,32,82,11,045,26,84,37,271,25*68
$GLGSV,2,2,06,83,52,357,32,67,10,057,34*6A
$GPGSA,A,3,02,05,12,21,25,29,31,,,,,,1.2,0.9,0.8*39
$GPVTG,25.8,T,25.8,M,2.6,N,4.8,K,D*2E
$GPRMC,160350,A,3206.395450,N,03512.246505,E,2.6,25.8,030516,3.0,E,D*2A
$GPGGA,160350,3206.395450,N,03512.246505,E,2,07,0.9,655.0,M,19.0,M,,*4C
$GPGSV,2,1,07,02,27,043,32,05,28,095,31,12,48,111,30,21,26,219,26*79
$GPGSV,2,2,07,25,77,032,32,29,56,322,33,31,26,305,34*45
$GLGSV,2,1,06,74,29,326,31,73,73,261,30,82,11,045,35,84,37,271,27*6F
$GLGSV,2,2,06,83,52,357,36,67,10,057,32*68
$GPGSA,A,3,02,05,12,21,25,29,31,,,,,,1.2,0.9,0.8*39
$GPVTG,25.4,T,25.4,M,3.1,N,5.7,K,D*26
$GPRMC,160351,A,3206.396042,N,03512.247060,E,3.1,25.4,030516,3.0,E,D*22
$GPGGA,160351,3206.396042,N,03512.247060,E,2,07,0.9,655.0,M,19.0,M,,*4E
$GPGSV,2,1,07,02,27,043,35,05,28,095,28,12,48,111,31,21,26,219,25*74
$GPGSV,2,2,07,25,77,032,33,29,56,322,34,31,26,305,35*42
$GLGSV,2,1,06,74,29,326,33,73,73,261,32,82,11,045,28,84,37,271,26*62
$GLGSV,2,2,06,83,52,357,35,67,10,057,35*6C
$GPGSA,A,3,02,05,12,21,25,29,31,,,,,,1.2,0.9,0.8*39
$GPVTG,34.0,T,34.0,M,2.4,N,4.5,K,D*21
$GPRMC,160352,A,3206.396662,N,03512.247591,E,2.4,34.0,030516,3.0,E,D*2E
$GPGGA,160352,3206.396662,N,03512.247591,E,2,07,0.9,656.0,M,19.0,M,,*41
$GPGSV,2,1,06,02,27,043,34,05,28,095,34,12,48,111,33,25,77,032,31*75
$GPGSV,2,2,06,29,56,322,33,31,26,305,36*71
$GLGSV,2,1,06,74,29,326,32,73,73,261,30,82,11,045,30,84,37,271,27*69
$GLGSV,2,2,06,83,52,357,34,67,10,057,35*6D
$GPGSA,A,3,02,05,12,25,29,31,,,,,,,1.2,0.9,0.8*3A
$GPVTG,34.9,T,34.9,M,2.7,N,4.9,K,D*2E
$GPRMC,160353,A,3206.397199,N,03512.248158,E,2.7,34.9,030516,3.0,E,D*29
$GPGGA,160353,3206.397199,N,03512.248158,E,2,06,0.9,655.0,M,19.0,M,,*4E
$GPGSV,2,1,06,02,27,043,33,05,28,095,31,12,48,111,32,25,77,032,33*74
$GPGSV,2,2,06,29,56,322,33,31,26,305,30*77
$GLGSV,2,1,06,74,29,326,36,73,73,261,29,82,11,045,32,84,37,271,27*67
$GLGSV,2,2,06,83,52,357,36,67,10,057,31*6B
$GPGSA,A,3,02,05,12,25,29,31,,,,,,,1.2,0.9,0.8*3A
$GPVTG,53.5,T,53.5,M,3.0,N,5.6,K,D*26
$GPRMC,160354,A,3206.397768,N,03512.248836,E,3.0,53.5,030516,3.0,E,D*2C
$GPGGA,160354,3206.397768,N,03512.248836,E,2,06,0.9,655.0,M,19.0,M,,*40
$GPGSV,2,1,07,02,27,043,33,05,28,095,27,12,48,111,33,21,26,219,24*7E
$GPGSV,2,2,07,25,77,032,33,29,56,322,33,31,26,305,33*43
$GLGSV,2,1,06,74,29,326,34,73,73,261,30,82,11,045,30,84,37,271,24*6C
$GLGSV,2,2,06,83,52,357,36,67,10,057,34*6E
$GPGSA,A,3,02,05,12,21,25,29,31,,,,,,1.2,0.9,0.8*39
$GPVTG,53.9,T,53.9,M,1.1,N,2.1,K,D*25
$GPRMC,160355,A,3206.398069,N,03512.249354,E,1.1,53.9,030516,3.0,E,D*25
$GPGGA,160355,3206.398069,N,03512.249354,E,2,07,0.9,654.0,M,19.0,M,,*46
$GPGSV,2,1,07,02,27,043,33,05,28,095,33,12,48,111,34,21,26,219,24*7C
$GPGSV,2,2,07,25,77,032,32,29,56,322,33,31,26,305,33*42
$GLGSV,2,1,06,74,29,326,29,73,73,261,32,82,11,045,31,84,37,271,25*62
$GLGSV,2,2,06,83,52,357,34,67,10,057,35*6D
$GPGSA,A,3,02,05,12,21,25,29,31,,,,,,1.2,0.9,0.8*39
$GPVTG,54.5,T,54.5,M,2.6,N,4.9,K,D*2F
$GPRMC,160356,A,3206.398220,N,03512.249925,E,2.6,54.5,030516,3.0,E,D*2A
$GPGGA,160356,3206.398220,N,03512.249925,E,2,07,0.9,653.0,M,19.0,M,,*41
$GPGSV,2,1,07,02,27,043,34,05,28,095,33,12,48,111,35,21,26,219,25*7B
$GPGSV,2,2,07,25,77,032,31,29,56,322,35,31,26,305,36*42
$GLGSV,2,1,05,74,29,326,36,73,73,261,31,82,11,045,31,83,52,357,36*6F
$GLGSV,2,2,05,67,10,057,31*50
$GPGSA,A,3,02,05,12,21,25,29,31,,,,,,1.2,0.9,0.8*39
$GPVTG,74.2,T,74.2,M,2.9,N,5.3,K,D*2B
$GPRMC,160357,A,3206.398360,N,03512.250735,E,2.9,74.2,030516,3.0,E,D*23
$GPGGA,160357,3206.398360,N,03512.250735,E,2,07,0.9,653.0,M,19.0,M,,*42
$GPGSV,2,1,06,02,27,043,32,05,28,095,32,12,48,111,31,25,77,032,33*75
$GPGSV,2,2,06,29,56,322,34,31,26,305,34*74
$GLGSV,2,1,05,74,29,326,33,73,73,261,31,82,11,045,29,83,52,357,37*62
$GLGSV,2,2,05,67,10,057,34*55
$GPGSA,A,3,02,05,12,25,29,31,,,,,,,1.2,0.9,0.8*3A
$GPVTG,74.0,T,74.0,M,2.8,N,5.3,K,D*2A
$GPRMC,160358,A,3206.398482,N,03512.251637,E,2.8,74.0,030516,3.0,E,D*26
$GPGGA,160358,3206.398482,N,03512.251637,E,2,06,0.9,651.0,M,19.0,M,,*47
$GPGSV,2,1,06,02,27,043,33,05,28,095,36,12,48,111,33,25,77,032,33*72
$GPGSV,2,2,06,29,56,322,35,31,26,305,35*74
$GLGSV,2,1,06,74,29,326,33,73,73,261,31,82,11,045,34,83,52,357,37*6D
$GLGSV,2,2,06,67,10,057,35,68,09,108,24*6F
$GPGSA,A,3,02,05,12,25,29,31,,,,,,,1.1,0.8,0.8*38
$GPVTG,74.1,T,74.1,M,2.8,N,5.2,K,D*2B
$GPRMC,160359,A,3206.398727,N,03512.252395,E,2.8,74.1,030516,3.0,E,D*24
$GPGGA,160359,3206.398727,N,03512.252395,E,2,06,0.8,650.0,M,19.0,M,,*44
$GPGSV,2,1,06,02,27,043,28,05,28,095,33,12,48,111,29,25,77,032,31*74
$GPGSV,2,2,06,29,56,322,33,31,26,305,33*74
$GLGSV,2,1,05,74,29,326,30,73,73,261,27,82,11,045,31,83,52,357,33*6B
$GLGSV,2,2,05,67,10,057,32*53
$GPGSA,A,3,02,05,12,25,29,31,,,,,,,1.1,0.8,0.8*38
$GPVTG,67.4,T,67.4,M,2.6,N,4.9,K,D*2F
$GPRMC,160400,A,3206.398945,N,03512.253066,E,2.6,67.4,030516,3.0,E,D*22
$GPGGA,160400,3206.398945,N,03512.253066,E,2,06,0.8,649.0,M,19.0,M,,*43
$GPGSV,2,1,06,02,27,043,26,05,28,095,32,12,48,111,23,25,77,032,33*73
$GPGSV,2,2,06,29,56,322,34,31,26,305,26*77
$GLGSV,2,1,07,74,29,326,32,73,73,261,25,82,11,045,30,84,37,271,23*68
$GLGSV,2,2,07,83,52,357,34,67,10,057,34,68,09,108,23*52
$GPGSA,A,3,02,05,12,25,29,31,,,,,,,1.1,0.8,0.8*38
$GPVTG,67.3,T,67.3,M,1.8,N,3.4,K,D*28
$GPRMC,160401,A,3206.399121,N,03512.253618,E,1.8,67.3,030516,3.0,E,D*2D
$GPGGA,160401,3206.399121,N,03512.253618,E,2,06,0.8,649.0,M,19.0,M,,*46
$GPGSV,2,1,06,02,27,043,27,05,28,095,36,12,48,111,32,25,77,032,34*71
$GPGSV,2,2,06,29,56,322,34,31,26,305,33*73
$GLGSV,2,1,06,74,29,326,31,73,73,261,31,82,11,045,31,84,37,271,25*68
$GLGSV,2,2,06,83,52,357,35,67,10,057,34*6D
$GPGSA,A,3,02,05,12,25,29,31,,,,,,,1.1,0.8,0.8*38
$GPVTG,67.8,T,67.8,M,3.3,N,6.1,K,D*21
$GPRMC,160402,A,3206.399392,N,03512.254372,E,3.3,67.8,030516,3.0,E,D*28
$GPGGA,160402,3206.399392,N,03512.254372,E,2,06,0.8,648.0,M,19.0,M,,*40
$GPGSV,2,1,07,02,27,043,31,05,28,095,30,12,48,111,34,21,26,219,24*7D
$GPGSV,2,2,07,25,77,032,33,29,56,322,34,31,26,305,34*43
$GLGSV,2,1,07,74,29,326,31,73,73,261,30,82,11,045,27,84,37,271,24*6E
$GLGSV,2,2,07,83,52,357,33,67,10,057,33,68,09,108,27*56
$GPGSA,A,3,02,05,12,21,25,29,31,,,,,,1.1,0.8,0.8*3B
$GPVTG,68.7,T,68.7,M,3.0,N,5.5,K,D*25
$GPRMC,160403,A,3206.399663,N,03512.255199,E,3.0,68.7,030516,3.0,E,D*27
$GPGGA,160403,3206.399663,N,03512.255199,E,2,07,0.8,647.0,M,19.0,M,,*42
$GPGSV,2,1,07,02,27,043,32,05,28,095,37,12,48,111,27,21,26,219,27*78
$GPGSV,2,2,07,25,77,032,32,29,56,322,35,31,26,305,33*44
$GLGSV,2,1,07,74,29,326,34,73,73,261,31,82,11,045,31,84,37,271,24*6D
$GLGSV,2,2,07,83,52,357,35,67,10,057,35,68,09,108,33*53
$GPGSA,A,3,02,05,12,21,25,29,31,,,,,,1.1,0.8,0.8*3B
$GPVTG,68.8,T,68.8,M,2.2,N,4.1,K,D*23
$GPRMC,160404,A,3206.399833,N,03512.255728,E,2.2,68.8,030516,3.0,E,D*2B
$GPGGA,160404,3206.399833,N,03512.255728,E,2,07,0.8,647.0,M,19.0,M,,*42
$GPGSV,2,1,07,02,27,043,31,05,28,095,32,12,48,111,33,21,26,219,27*7B
$GPGSV,2,2,07,25,77,032,31,29,56,322,31,31,26,305,29*48
$GLGSV,2,1,06,74,29,326,35,73,73,261,32,82,11,045,33,83,52,357,37*6F
$GLGSV,2,2,06,67,10,057,36,68,09,108,34*6D
$GPGSA,A,3,02,05,12,21,25,29,31,,,,,,1.1,0.8,0.8*3B
$GPVTG,77.4,T,77.4,M,2.9,N,5.4,K,D*2C
$GPRMC,160405,A,3206.400031,N,03512.256375,E,2.9,77.4,030516,3.0,E,D*21
$GPGGA,160405,3206.400031,N,03512.256375,E,2,07,0.8,646.0,M,19.0,M,,*40
$GPGSV,2,1,08,02,27,043,32,05,28,095,34,12,48,111,31,20,25,150,23*7B
$GPGSV,2,2,08,21,26,219,25,25,77,032,31,29,56,322,31,31,26,305,28*7C
$GLGSV,2,1,06,74,29,326,32,73,73,261,28,82,11,045,37,83,52,357,35*65
$GLGSV,2,2,06,67,10,057,34,68,09,108,29*63
$GPGSA,A,3,02,05,12,20,21,25,29,31,,,,,1.1,0.7,0.8*36
$GPVTG,78.3,T,78.3,M,1.9,N,3.5,K,D*28
$GPRMC,160406,A,3206.400226,N,03512.256932,E,1.9,78.3,030516,3.0,E,D*24
$GPGGA,160406,3206.400226,N,03512.256932,E,2,08,0.7,645.0,M,19.0,M,,*4D
$GPGSV,2,1,08,02,27,043,33,05,28,095,35,12,48,111,37,20,25,150,28*76
$GPGSV,2,2,08,21,26,219,29,25,77,032,33,29,56,322,35,31,26,305,29*77
$GLGSV,2,1,06,74,29,326,35,73,73,261,29,82,11,045,34,83,52,357,35*60
$GLGSV,2,2,06,67,10,057,35,68,09,108,31*6B
$GPGSA,A,3,02,05,12,20,21,25,29,31,,,,,1.1,0.7,0.8*36
$GPVTG,77.9,T,77.9,M,1.9,N,3.6,K,D*2B
$GPRMC,160407,A,3206.400414,N,03512.257398,E,1.9,77.9,030516,3.0,E,D*2C
$GPGGA,160407,3206.400414,N,03512.257398,E,2,08,0.7,645.0,M,19.0,M,,*40
$GPGSV,2,1,08,02,27,043,31,05,28,095,32,12,48,111,33,20,25,150,25*7A
$GPGSV,2,2,08,21,26,219,29,25,77,032,27,29,56,322,31,31,26,305,27*78
$GLGSV,1,1,04,74,29,326,28,82,11,045,34,83,52,357,27,67,10,057,30*61
$GPGSA,A,3,02,05,12,20,21,25,29,31,,,,,1.1,0.7,0.8*36
$GPVTG,61.1,T,61.1,M,2.4,N,4.5,K,D*21
$GPRMC,160408,A,3206.400757,N,03512.258063,E,2.4,61.1,030516,3.0,E,D*2E
$GPGGA,160408,3206.400757,N,03512.258063,E,2,08,0.7,645.0,M,19.0,M,,*43
$GPGSV,2,1,06,02,27,043,33,05,28,095,30,12,48,111,34,25,77,032,34*74
$GPGSV,2,2,06,29,56,322,33,31,26,305,37*70
$GLGSV,2,1,06,74,29,326,32,73,73,261,31,82,11,045,33,84,37,271,28*64
$GLGSV,2,2,06,83,52,357,35,67,10,057,27*6F
$GPGSA,A,3,02,05,12,25,29,31,,,,,,,1.1,0.7,0.8*37
$GPVTG,61.0,T,61.0,M,2.0,N,3.7,K,D*20
$GPRMC,160409,A,3206.401155,N,03512.258646,E,2.0,61.0,030516,3.0,E,D*2E
$GPGGA,160409,3206.401155,N,03512.258646,E,2,06,0.7,645.0,M,19.0,M,,*48
$GPGSV,2,1,08,02,27,043,37,05,28,095,28,12,48,111,36,20,25,150,25*72
$GPGSV,2,2,08,21,26,219,24,25,77,032,33,29,56,322,33,31,26,305,32*76
$GLGSV,2,1,06,74,29,326,34,73,73,261,32,84,37,271,23,83,52,357,33*6C
$GLGSV,2,2,06,67,10,057,34,68,09,108,24*6E
$GPGSA,A,3,02,05,12,20,21,25,29,31,,,,,1.1,0.7,0.8*36
$GPVTG,61.0,T,61.0,M,2.4,N,4.5,K,D*21
$GPRMC,160410,A,3206.401637,N,03512.259151,E,2.4,61.0,030516,3.0,E,D*21
$GPGGA,160410,3206.401637,N,03512.259151,E,2,08,0.7,644.0,M,19.0,M,,*4C
$GPGSV,2,1,08,02,27,043,29,05,28,095,30,12,48,111,28,20,25,150,25*7B
$GPGSV,2,2,08,21,26,219,36,25,77,032,30,29,56,322,29,31,26,305,23*7D
$GLGSV,2,1,05,73,73,261,30,82,11,045,28,84,37,271,27,83,52,357,25*67
$GLGSV,2,2,05,67,10,057,32*53
$GPGSA,A,3,02,05,12,20,21,25,29,31,,,,,1.1,0.7,0.8*36
$GPVTG,60.9,T,60.9,M,1.8,N,3.4,K,D*28
$GPRMC,160411,A,3206.402074,N,03512.259652,E,1.8,60.9,030516,3.0,E,D*21
$GPGGA,160411,3206.402074,N,03512.259652,E,2,08,0.7,644.0,M,19.0,M,,*4B
$GPGSV,2,1,06,02,27,043,29,05,28,095,30,12,48,111,31,21,26,219,33*76
$GPGSV,2,2,06,25,77,032,27,31,26,305,29*77
$GLGSV,2,1,06,74,29,326,26,73,73,261,30,82,11,045,33,84,37,271,31*68
$GLGSV,2,2,06,83,52,357,28,67,10,057,32*67
$GPGSA,A,3,02,05,12,21,25,31,,,,,,,1.1,0.7,0.8*3F
$GPVTG,61.0,T,61.0,M,0.6,N,1.1,K,D*20
$GPRMC,160412,A,3206.402230,N,03512.259770,E,0.6,61.0,030516,3.0,E,D*26
$GPGGA,160412,3206.402230,N,03512.259770,E,2,06,0.7,645.0,M,19.0,M,,*44
$GPGSV,2,1,08,02,27,043,34,05,28,095,34,12,48,111,34,20,25,150,25*7E
$GPGSV,2,2,08,21,26,219,27,25,77,032,32,29,56,322,29,31,26,305,28*74
$GLGSV,2,1,05,74,29,326,33,73,73,261,25,82,11,045,37,83,52,357,34*6B
$GLGSV,2,2,05,67,10,057,32*53
$GPGSA,A,3,02,05,12,20,21,25,29,31,,,,,1.1,0.7,0.8*36
$GPVTG,73.2,T,73.2,M,2.1,N,3.9,K,D*2F
$GPRMC,160413,A,3206.402346,N,03512.260008,E,2.1,73.2,030516,3.0,E,D*21
$GPGGA,160413,3206.402346,N,03512.260008,E,2,08,0.7,644.0,M,19.0,M,,*48
$GPGSV,2,1,08,02,27,043,35,05,28,095,31,12,48,111,35,20,25,150,25*7B
$GPGSV,2,2,08,21,26,219,32,25,77,032,33,29,56,322,24,31,26,305,25*71
$GLGSV,2,1,05,74,29,326,28,73,73,261,25,82,11,045,37,83,52,357,31*64
$GLGSV,2,2,05,67,10,057,36*57
$GPGSA,A,3,02,05,12,20,21,25,29,31,,,,,1.1,0.7,0.8*36
$GPVTG,71.0,T,71.0,M,2.5,N,4.6,K,D*23
$GPRMC,160414,A,3206.402553,N,03512.260640,E,2.5,71.0,030516,3.0,E,D*2A
$GPGGA,160414,3206.402553,N,03512.260640,E,2,08,0.7,645.0,M,19.0,M,,*46
$GPGSV,2,1,08,02,27,043,32,05,28,095,33,12,48,111,36,20,25,150,24*7C
$GPGSV,2,2,08,21,26,219,28,25,77,032,32,29,56,322,34,31,26,305,30*7E
$GLGSV,2,1,05,74,29,326,34,73,73,261,29,82,11,045,34,83,52,357,36*61
$GLGSV,2,2,05,67,10,057,36*57
$GPGSA,A,3,02,05,12,20,21,25,29,31,,,,,1.1,0.7,0.8*36
$GPVTG,60.8,T,60.8,M,2.4,N,4.5,K,D*21
$GPRMC,160415,A,3206.402900,N,03512.261338,E,2.4,60.8,030516,3.0,E,D*23
$GPGGA,160415,3206.402900,N,03512.261338,E,2,08,0.7,644.0,M,19.0,M,,*47
$GPGSV,2,1,08,02,27,043,31,05,28,095,31,12,48,111,34,20,25,150,25*7E
$GPGSV,2,2,08,21,26,219,28,25,77,032,33,29,56,322,33,31,26,305,27*7E
$GLGSV,2,1,05,74,29,326,31,73,73,261,26,82,11,045,34,83,52,357,37*6A
$GLGSV,2,2,05,67,10,057,37*56
$GPGSA,A,3,02,05,12,20,21,25,29,31,,,,,1.1,0.8,0.8*39
$GPVTG,61.6,T,61.6,M,2.4,N,4.4,K,D*20
$GPRMC,160416,A,3206.403153,N,03512.262018,E,2.4,61.6,030516,3.0,E,D*22
$GPGGA,160416,3206.403153,N,03512.262018,E,2,08,0.8,643.0,M,19.0,M,,*41
$GPGSV,2,1,08,02,27,043,29,05,28,095,32,12,48,111,34,20,25,150,30*70
$GPGSV,2,2,08,21,26,219,28,25,77,032,31,29,56,322,33,31,26,305,26*7D
$GLGSV,2,1,05,74,29,326,31,73,73,261,26,82,11,045,33,83,52,357,34*6E
$GLGSV,2,2,05,67,10,057,37*56
$GPGSA,A,3,02,05,12,20,21,25,29,31,,,,,1.1,0.8,0.8*39
$GPVTG,62.2,T,62.2,M,2.4,N,4.5,K,D*21
$GPRMC,160417,A,3206.403347,N,03512.262709,E,2.4,62.2,030516,3.0,E,D*24
$GPGGA,160417,3206.403347,N,03512.262709,E,2,08,0.8,643.0,M,19.0,M,,*40
$GPGSV,2,1,08,02,27,043,30,05,28,095,30,12,48,111,35,20,25,150,34*7F
$GPGSV,2,2,08,21,26,219,30,25,77,032,32,29,56,322,31,31,26,305,26*75
$GLGSV,2,1,05,74,29,326,28,73,73,261,26,82,11,045,35,83,52,357,33*67
$GLGSV,2,2,05,67,10,057,38*59
$GPGSA,A,3,02,05,12,20,21,25,29,31,,,,,1.1,0.8,0.8*39
$GPVTG,81.7,T,81.7,M,2.6,N,4.8,K,D*2E
$GPRMC,160418,A,3206.403578,N,03512.263456,E,2.6,81.7,030516,3.0,E,D*23
$GPGGA,160418,3206.403578,N,03512.263456,E,2,08,0.8,642.0,M,19.0,M,,*4C
$GPGSV,2,1,08,02,27,043,34,05,28,095,30,12,48,111,36,20,25,150,33*7F
$GPGSV,2,2,08,21,26,219,30,25,77,032,32,29,56,322,27,31,26,305,24*70
$GLGSV,2,1,05,74,29,326,29,73,73,261,29,82,11,045,34,83,52,357,32*69
$GLGSV,2,2,05,67,10,057,38*59
$GPGSA,A,3,02,05,12,20,21,25,29,31,,,,,1.1,0.8,0.8*39
$GPVTG,78.5,T,78.5,M,3.6,N,6.6,K,D*23
$GPRMC,160419,A,3206.403767,N,03512.264458,E,3.6,78.5,030516,3.0,E,D*22
$GPGGA,160419,3206.403767,N,03512.264458,E,2,08,0.8,642.0,M,19.0,M,,*48
$GPGSV,2,1,08,02,27,043,33,05,28,095,32,12,48,111,35,20,25,150,34*7E
$GPGSV,2,2,08,21,26,219,29,25,77,032,34,29,56,322,32,31,26,305,24*7A
$GLGSV,2,1,05,74,29,326,29,73,73,261,28,82,11,045,33,83,52,357,34*69
$GLGSV,2,2,05,67,10,057,36*57
$GPGSA,A,3,02,05,12,20,21,25,29,31,,,,,1.1,0.8,0.8*39
$GPVTG,76.7,T,76.7,M,3.4,N,6.4,K,D*23
$GPRMC,160420,A,3206.404114,N,03512.265513,E,3.4,76.7,030516,3.0,E,D*2C
$GPGGA,160420,3206.404114,N,03512.265513,E,2,08,0.8,641.0,M,19.0,M,,*4B
$GPGSV,2,1,08,02,27,043,37,05,28,095,34,12,48,111,33,20,25,150,34*7A
$GPGSV,2,2,08,21,26,219,26,25,77,032,35,29,56,322,31,31,26,305,31*73
$GLGSV,2,1,05,74,29,326,35,73,73,261,26,82,11,045,37,83,52,357,38*62
$GLGSV,2,2,05,67,10,057,34*55
$GPGSA,A,3,02,05,12,20,21,25,29,31,,,,,1.1,0.8,0.8*39
$GPVTG,60.7,T,60.7,M,3.2,N,6.0,K,D*21
$GPRMC,160421,A,3206.404564,N,03512.266536,E,3.2,60.7,030516,3.0,E,D*2B
$GPGGA,160421,3206.404564,N,03512.266536,E,2,08,0.8,641.0,M,19.0,M,,*4D
$GPGSV,2,1,08,02,27,043,36,05,28,095,32,12,48,111,37,20,25,150,31*7C
$GPGSV,2,2,08,21,26,219,28,25,77,032,29,29,56,322,26,31,26,305,31*76
$GLGSV,2,1,05,74,29,326,34,73,73,261,25,82,11,045,37,83,52,357,33*6B
$GLGSV,2,2,05,67,10,057,34*55
$GPGSA,A,3,02,05,12,20,21,25,29,31,,,,,1.1,0.8,0.8*39
$GPVTG,50.3,T,50.3,M,3.8,N,7.0,K,D*2A
$GPRMC,160422,A,3206.405207,N,03512.267586,E,3.8,50.3,030516,3.0,E,D*2C
$GPGGA,160422,3206.405207,N,03512.267586,E,2,08,0.8,641.0,M,19.0,M,,*47
$GPGSV,2,1,08,02,27,043,34,05,28,095,30,12,48,111,31,20,25,150,30*7B
$GPGSV,2,2,08,21,26,219,27,25,77,032,35,29,56,322,33,31,26,305,31*70
$GLGSV,2,1,05,74,29,326,36,73,73,261,30,82,11,045,37,83,52,357,34*6A
$GLGSV,2,2,05,67,10,057,34*55
$GPGSA,A,3,02,05,12,20,21,25,29,31,,,,,1.1,0.8,0.8*39
$GPVTG,50.3,T,50.3,M,3.0,N,5.6,K,D*26
$GPRMC,160423,A,3206.405848,N,03512.268525,E,3.0,50.3,030516,3.0,E,D*22
$GPGGA,160423,3206.405848,N,03512.268525,E,2,08,0.8,641.0,M,19.0,M,,*41
$GPGSV,2,1,08,02,27,043,34,05,28,094,31,12,47,112,36,20,25,150,36*76
$GPGSV,2,2,08,21,27,219,27,25,78,036,32,29,56,323,24,31,26,305,30*7B
$GLGSV,2,1,05,74,29,326,33,73,73,261,31,82,11,045,36,83,52,357,34*6F
$GLGSV,2,2,05,67,10,057,34*55
$GPGSA,A,3,02,05,12,20,21,25,29,31,,,,,1.1,0.8,0.8*39
$GPVTG,73.3,T,73.3,M,3.1,N,5.7,K,D*26
$GPRMC,160424,A,3206.406400,N,03512.269438,E,3.1,73.3,030516,3.0,E,D*2A
$GPGGA,160424,3206.406400,N,03512.269438,E,2,08,0.8,641.0,M,19.0,M,,*49
$GPGSV,2,1,08,02,27,043,28,05,28,094,37,12,47,112,36,20,25,150,27*7D
$GPGSV,2,2,08,21,27,219,33,25,78,036,32,29,56,323,24,31,26,305,23*7C
$GLGSV,2,1,05,73,73,261,24,82,11,045,35,84,37,271,23,83,52,357,32*6C
$GLGSV,2,2,05,67,10,057,33*52
$GPGSA,A,3,02,05,12,20,21,25,29,31,,,,,1.1,0.8,0.8*39
$GPVTG,73.3,T,73.3,M,3.1,N,5.7,K,D*26
$GPRMC,160425,A,3206.406805,N,03512.270443,E,3.1,73.3,030516,3.0,E,D*26
$GPGGA,160425,3206.406805,N,03512.270443,E,2,08,0.8,641.0,M,19.0,M,,*45
$GPGSV,2,1,07,02,27,043,29,05,28,094,38,12,47,112,32,20,25,150,29*76
$GPGSV,2,2,07,21,27,219,33,25,78,036,34,29,56,323,27*47
$GLGSV,2,1,05,74,29,326,28,73,73,261,23,82,11,045,36,83,52,357,33*61
$GLGSV,2,2,05,67,10,057,33*52
$GPGSA,A,3,02,05,12,20,21,25,29,,,,,,1.1,0.8,0.8*3B
$GPVTG,80.5,T,80.5,M,3.1,N,5.7,K,D*26
$GPRMC,160426,A,3206.407038,N,03512.271532,E,3.1,80.5,030516,3.0,E,D*2E
$GPGGA,160426,3206.407038,N,03512.271532,E,2,07,0.8,642.0,M,19.0,M,,*4B
$GPGSV,2,1,08,02,27,043,34,05,28,094,32,12,47,112,37,20,25,150,32*70
$GPGSV,2,2,08,21,27,219,30,25,78,036,31,29,56,323,28,31,26,305,25*76
$GLGSV,2,1,05,74,29,326,31,73,73,261,31,82,11,045,36,83,52,357,33*6A
$GLGSV,2,2,05,67,10,057,34*55
$GPGSA,A,3,02,05,12,20,21,25,29,31,,,,,1.1,0.8,0.8*39
$GPVTG,74.0,T,74.0,M,3.2,N,5.9,K,D*2B
$GPRMC,160427,A,3206.407318,N,03512.272592,E,3.2,74.0,030516,3.0,E,D*2A
$GPGGA,160427,3206.407318,N,03512.272592,E,2,08,0.8,641.0,M,19.0,M,,*4E
$GPGSV,2,1,08,02,27,043,34,05,28,094,30,12,47,112,34,20,25,150,33*70
$GPGSV,2,2,08,21,27,219,27,25,78,036,33,29,56,323,26,31,26,305,23*7A
$GLGSV,2,1,06,74,29,326,28,73,73,261,31,82,11,045,36,84,37,271,24*66
$GLGSV,2,2,06,83,52,357,31,67,10,057,36*6B
$GPGSA,A,3,02,05,12,20,21,25,29,31,,,,,1.1,0.8,0.8*39
$GPVTG,74.0,T,74.0,M,2.9,N,5.3,K,D*2B
$GPRMC,160428,A,3206.407711,N,03512.273545,E,2.9,74.0,030516,3.0,E,D*29
$GPGGA,160428,3206.407711,N,03512.273545,E,2,08,0.8,641.0,M,19.0,M,,*47
$GPGSV,2,1,08,02,27,043,33,05,28,094,31,12,47,112,36,20,25,150,31*76
$GPGSV,2,2,08,21,27,219,27,25,78,036,33,29,56,323,29,31,26,305,24*72
$GLGSV,2,1,05,74,29,326,26,73,73,261,29,82,11,045,36,83,52,357,29*6E
$GLGSV,2,2,05,67,10,057,33*52
$GPGSA,A,3,02,05,12,20,21,25,29,31,,,,,1.1,0.8,0.8*39
$GPVTG,73.9,T,73.9,M,2.9,N,5.4,K,D*2C
$GPRMC,160429,A,3206.408034,N,03512.274447,E,2.9,73.9,030516,3.0,E,D*2D
$GPGGA,160429,3206.408034,N,03512.274447,E,2,08,0.8,642.0,M,19.0,M,,*4E
$GPGSV,2,1,07,02,27,043,35,12,47,112,32,20,25,150,34,21,27,219,31*70
$GPGSV,2,2,07,25,78,036,33,29,56,323,29,31,26,305,26*46
$GLGSV,2,1,05,74,29,326,33,73,73,261,27,82,11,045,37,83,52,357,30*6D
$GLGSV,2,2,05,67,10,057,32*53
$GPGSA,A,3,02,12,20,21,25,29,31,,,,,,1.1,0.8,0.8*3C
$GPVTG,82.5,T,82.5,M,3.0,N,5.5,K,D*25
$GPRMC,160430,A,3206.408311,N,03512.275428,E,3.0,82.5,030516,3.0,E,D*23
$GPGGA,160430,3206.408311,N,03512.275428,E,2,07,0.8,641.0,M,19.0,M,,*46
$GPGSV,2,1,08,02,27,043,30,05,28,094,37,12,47,112,31,20,25,150,30*75
$GPGSV,2,2,08,21,27,219,26,25,78,036,31,29,56,323,31,31,26,305,25*79
$GLGSV,1,1,04,74,29,326,30,82,11,045,28,83,52,357,34,67,10,057,28*6E
$GPGSA,A,3,02,05,12,20,21,25,29,31,,,,,1.1,0.8,0.8*39
$GPVTG,80.8,T,80.8,M,3.2,N,5.9,K,D*2B
$GPRMC,160431,A,3206.408600,N,03512.276440,E,3.2,80.8,030516,3.0,E,D*27
$GPGGA,160431,3206.408600,N,03512.276440,E,2,08,0.8,641.0,M,19.0,M,,*40
$GPGSV,2,1,08,02,27,043,26,05,28,094,35,12,47,112,31,20,25,150,32*72
$GPGSV,2,2,08,21,27,219,29,25,78,036,32,29,56,323,29,31,26,305,23*7A
$GLGSV,1,1,04,74,29,326,32,82,11,045,28,83,52,357,35,67,10,057,33*67
$GPGSA,A,3,02,05,12,20,21,25,29,31,,,,,1.1,0.8,0.8*39
$GPVTG,75.9,T,75.9,M,3.4,N,6.2,K,D*25
$GPRMC,160432,A,3206.408975,N,03512.277547,E,3.4,75.9,030516,3.0,E,D*23
$GPGGA,160432,3206.408975,N,03512.277547,E,2,08,0.8,641.0,M,19.0,M,,*49
$GPGSV,2,1,07,02,27,043,34,05,28,094,27,12,47,112,38,20,25,150,26*71
$GPGSV,2,2,07,21,27,219,33,25,78,036,25,29,56,323,25*45
$GLGSV,2,1,05,74,29,326,31,73,73,261,29,82,11,045,31,83,52,357,29*6F
$GLGSV,2,2,05,67,10,057,36*57
$GPGSA,A,3,02,05,12,20,21,25,29,,,,,,1.1,0.8,0.8*3B
$GPVTG,71.3,T,71.3,M,3.4,N,6.3,K,D*24
$GPRMC,160433,A,3206.409391,N,03512.278555,E,3.4,71.3,030516,3.0,E,D*21
$GPGGA,160433,3206.409391,N,03512.278555,E,2,07,0.8,641.0,M,19.0,M,,*4A
$GPGSV,2,1,07,02,27,043,32,05,28,094,31,12,47,112,36,20,25,150,32*7B
$GPGSV,2,2,07,21,27,219,34,25,78,036,29,31,26,305,27*46
$GLGSV,1,1,04,74,29,326,30,82,11,045,32,83,52,357,34,67,10,057,37*6B
$GPGSA,A,3,02,05,12,20,21,25,31,,,,,,1.1,0.8,0.8*32
$GPVTG,64.3,T,64.3,M,3.1,N,5.7,K,D*26
$GPRMC,160434,A,3206.409784,N,03512.279495,E,3.1,64.3,030516,3.0,E,D*2B
$GPGGA,160434,3206.409784,N,03512.279495,E,2,07,0.8,641.0,M,19.0,M,,*41
$GPGSV,2,1,08,02,27,043,33,05,28,094,31,12,47,112,36,20,25,150,32*75
$GPGSV,2,2,08,21,27,219,28,25,78,036,31,29,56,323,30,31,26,305,25*76
$GLGSV,2,1,05,74,29,326,34,73,73,261,27,82,11,045,27,83,52,357,26*6C
$GLGSV,2,2,05,67,10,057,34*55
$GPGSA,A,3,02,05,12,20,21,25,29,31,,,,,1.1,0.8,0.8*39
$GPVTG,63.7,T,63.7,M,3.3,N,6.1,K,D*21
$GPRMC,160435,A,3206.410201,N,03512.280436,E,3.3,63.7,030516,3.0,E,D*24
$GPGGA,160435,3206.410201,N,03512.280436,E,2,08,0.8,640.0,M,19.0,M,,*41
$GPGSV,2,1,08,02,27,043,34,05,28,094,35,12,47,112,35,20,25,150,31*76
$GPGSV,2,2,08,21,27,219,28,25,78,036,32,29,56,323,32,31,26,305,31*72
$GLGSV,2,1,05,74,29,326,34,73,73,261,25,82,11,045,31,83,52,357,35*6B
$GLGSV,2,2,05,67,10,057,36*57
$GPGSA,A,3,02,05,12,20,21,25,29,31,,,,,1.1,0.8,0.8*39
$GPVTG,52.9,T,52.9,M,2.8,N,5.3,K,D*2A
$GPRMC,160436,A,3206.410677,N,03512.281276,E,2.8,52.9,030516,3.0,E,D*27
$GPGGA,160436,3206.410677,N,03512.281276,E,2,08,0.8,640.0,M,19.0,M,,*44
$GPGSV,2,1,08,02,27,043,27,05,28,094,34,12,47,112,35,20,25,150,33*77
$GPGSV,2,2,08,21,27,219,25,25,78,036,30,29,56,323,32,31,26,305,30*7C
$GLGSV,2,1,05,74,29,326,30,73,73,261,23,82,11,045,35,83,52,357,27*6E
$GLGSV,2,2,05,67,10,057,36*57
$GPGSA,A,3,02,05,12,20,21,25,29,31,,,,,1.1,0.8,0.8*39
$GPVTG,52.5,T,52.5,M,2.6,N,4.8,K,D*2E
$GPRMC,160437,A,3206.411114,N,03512.281939,E,2.6,52.5,030516,3.0,E,D*27
$GPGGA,160437,3206.411114,N,03512.281939,E,2,08,0.8,640.0,M,19.0,M,,*46
$GPGSV,2,1,08,02,27,043,33,05,28,094,33,12,47,112,34,20,25,150,32*75
$GPGSV,2,2,08,21,27,219,24,25,78,036,23,29,56,323,32,31,26,305,32*7D
$GLGSV,2,1,06,74,29,326,34,73,73,261,26,82,11,045,34,84,37,271,25*6E
$GLGSV,2,2,06,83,52,357,36,67,10,057,32*68
$GPGSA,A,3,02,05,12,20,21,25,29,31,,,,,1.1,0.8,0.8*39
$GPVTG,52.3,T,52.3,M,1.6,N,2.9,K,D*2A
$GPRMC,160438,A,3206.411536,N,03512.282284,E,1.6,52.3,030516,3.0,E,D*27
$GPGGA,160438,3206.411536,N,03512.282284,E,2,08,0.8,640.0,M,19.0,M,,*43
$GPGSV,2,1,08,02,27,043,34,05,28,094,34,12,47,112,34,20,25,150,28*7E
$GPGSV,2,2,08,21,27,219,24,25,78,036,33,29,56,323,34,31,26,305,31*79
$GLGSV,2,1,06,74,29,326,35,73,73,261,30,82,11,045,37,84,37,271,28*66
$GLGSV,2,2,06,83,52,357,36,67,10,057,36*6C
$GPGSA,A,3,02,05,12,20,21,25,29,31,,,,,1.1,0.8,0.8*39
$GPVTG,19.1,T,19.1,M,2.6,N,4.9,K,D*2F
$GPRMC,160439,A,3206.411967,N,03512.282499,E,2.6,19.1,030516,3.0,E,D*2A
$GPGGA,160439,3206.411967,N,03512.282499,E,2,08,0.8,640.0,M,19.0,M,,*40
$GPGSV,2,1,07,02,27,043,23,05,28,094,34,12,47,112,31,20,25,150,27*7D
$GPGSV,2,2,07,25,78,036,32,29,56,323,33,31,26,305,32*49
$GLGSV,2,1,06,74,29,326,32,73,73,261,28,82,11,045,34,84,37,271,32*60
$GLGSV,2,2,06,83,52,357,38,67,10,057,37*63
$GPGSA,A,3,02,05,12,20,25,29,31,,,,,,1.1,0.8,0.8*3A
$GPVTG,18.7,T,18.7,M,2.5,N,4.7,K,D*22
$GPRMC,160440,A,3206.412583,N,03512.282647,E,2.5,18.7,030516,3.0,E,D*24
$GPGGA,160440,3206.412583,N,03512.282647,E,2,07,0.8,639.0,M,19.0,M,,*4B
$GPGSV,2,1,06,02,27,043,27,05,28,094,37,12,47,112,34,25,78,036,31*75
$GPGSV,2,2,06,29,56,323,30,31,26,305,30*75
$GLGSV,2,1,06,74,29,326,34,73,73,261,32,82,11,045,35,84,37,271,31*6F
$GLGSV,2,2,06,83,52,357,39,67,10,057,38*6D
$GPGSA,A,3,02,05,12,25,29,31,,,,,,,1.1,0.8,0.8*38
$GPVTG,8.0,T,8.0,M,3.0,N,5.6,K,D*26
$GPRMC,160441,A,3206.413332,N,03512.282679,E,3.0,8.0,030516,3.0,E,D*17
$GPGGA,160441,3206.413332,N,03512.282679,E,2,06,0.8,640.0,M,19.0,M,,*45
$GPGSV,2,1,07,02,27,043,31,05,28,094,37,12,47,112,34,21,27,219,27*75
$GPGSV,2,2,07,25,78,036,29,29,56,323,33,31,26,305,33*42
$GLGSV,2,1,07,74,29,326,34,73,73,261,34,82,11,045,35,84,37,271,30*69
$GLGSV,2,2,07,83,52,357,38,67,10,057,34,68,09,108,24*59
$GPGSA,A,3,02,05,12,21,25,29,31,,,,,,1.1,0.7,0.8*34
$GPVTG,8.1,T,8.1,M,3.0,N,5.5,K,D*25
$GPRMC,160442,A,3206.414134,N,03512.282641,E,3.0,8.1,030516,3.0,E,D*1D
$GPGGA,160442,3206.414134,N,03512.282641,E,2,07,0.7,640.0,M,19.0,M,,*40
$GPGSV,2,1,08,02,27,043,34,05,28,094,36,12,47,112,34,20,25,150,26*72
$GPGSV,2,2,08,21,27,219,28,25,78,036,31,29,56,323,32,31,26,305,28*79
$GLGSV,2,1,07,74,29,326,37,73,73,261,33,82,11,045,37,84,37,271,28*66
$GLGSV,2,2,07,83,52,357,40,67,10,057,36,68,09,108,24*54
$GPGSA,A,3,02,05,12,20,21,25,29,31,,,,,1.1,0.7,0.8*36
$GPVTG,1.4,T,1.4,M,3.4,N,6.3,K,D*24
$GPRMC,160443,A,3206.414988,N,03512.282659,E,3.4,1.4,030516,3.0,E,D*12
$GPGGA,160443,3206.414988,N,03512.282659,E,2,08,0.7,640.0,M,19.0,M,,*48
$GPGSV,2,1,08,02,27,043,31,05,28,094,26,12,47,112,35,20,25,150,25*74
$GPGSV,2,2,08,21,27,219,31,25,78,036,34,29,56,323,37,31,26,305,34*7C
$GLGSV,2,1,06,74,29,326,36,73,73,261,33,82,11,045,33,84,37,271,26*6C
$GLGSV,2,2,06,83,52,357,36,67,10,057,32*68
$GPGSA,A,3,02,05,12,20,21,25,29,31,,,,,1.1,0.7,0.8*36
$GPVTG,359.7,T,359.7,M,3.1,N,5.7,K,D*26
$GPRMC,160444,A,3206.415838,N,03512.282632,E,3.1,359.7,030516,3.0,E,D*1B
$GPGGA,160444,3206.415838,N,03512.282632,E,2,08,0.7,640.0,M,19.0,M,,*49
$GPGSV,2,1,08,02,27,043,36,05,28,094,29,12,47,112,27,20,25,150,27*7D
$GPGSV,2,2,08,21,27,219,28,25,78,036,28,29,56,323,36,31,26,305,37*7B
$GLGSV,2,1,07,74,29,326,36,73,73,261,30,82,11,045,32,84,37,271,28*61
$GLGSV,2,2,07,83,52,357,37,67,10,057,36,68,09,108,26*56
$GPGSA,A,3,02,05,12,20,21,25,29,31,,,,,1.1,0.7,0.8*36
$GPVTG,0.3,T,0.3,M,2.5,N,4.6,K,D*23
$GPRMC,160445,A,3206.416577,N,03512.282478,E,2.5,0.3,030516,3.0,E,D*1D
$GPGGA,160445,3206.416577,N,03512.282478,E,2,08,0.7,640.0,M,19.0,M,,*41
$GPGSV,2,1,08,02,27,043,29,05,28,094,29,12,47,112,29,20,25,150,26*7C
$GPGSV,2,2,08,21,27,219,28,25,78,036,33,29,56,323,32,31,26,305,31*73
$GLGSV,2,1,07,74,29,326,30,73,73,261,26,82,11,045,30,84,37,271,29*63
$GLGSV,2,2,07,83,52,357,32,67,10,057,32,68,09,108,25*54
$GPGSA,A,3,02,05,12,20,21,25,29,31,,,,,1.1,0.7,0.8*36
$GPVTG,330.8,T,330.8,M,2.9,N,5.4,K,D*2C
$GPRMC,160446,A,3206.417224,N,03512.282114,E,2.9,330.8,030516,3.0,E,D*16
$GPGGA,160446,3206.417224,N,03512.282114,E,2,08,0.7,641.0,M,19.0,M,,*4C
$GPGSV,2,1,07,02,27,043,32,05,28,094,32,20,25,150,22,21,27,219,36*77
$GPGSV,2,2,07,25,78,036,27,29,56,323,30,31,26,305,26*4B
$GLGSV,2,1,07,74,29,326,37,73,73,261,30,82,11,045,29,84,37,271,30*63
$GLGSV,2,2,07,83,52,357,38,67,10,057,30,68,09,108,27*5E
$GPGSA,A,3,02,05,20,21,25,29,31,,,,,,1.1,0.7,0.8*35
$GPVTG,330.9,T,330.9,M,2.4,N,4.4,K,D*20
$GPRMC,160447,A,3206.417852,N,03512.281747,E,2.4,330.9,030516,3.0,E,D*13
$GPGGA,160447,3206.417852,N,03512.281747,E,2,07,0.7,642.0,M,19.0,M,,*49
$GPGSV,2,1,08,02,27,043,33,05,28,094,32,12,47,112,29,20,25,150,24*7F
$GPGSV,2,2,08,21,27,219,34,25,78,036,31,29,56,323,35,31,26,305,31*7B
$GLGSV,2,1,06,74,29,326,33,73,73,261,33,82,11,045,32,84,37,271,29*67
$GLGSV,2,2,06,83,52,357,37,68,09,108,27*61
$GPGSA,A,3,02,05,12,20,21,25,29,31,,,,,1.1,0.7,0.8*36
$GPVTG,330.9,T,330.9,M,2.5,N,4.6,K,D*23
$GPRMC,160448,A,3206.418402,N,03512.281383,E,2.5,330.9,030516,3.0,E,D*17
$GPGGA,160448,3206.418402,N,03512.281383,E,2,08,0.7,643.0,M,19.0,M,,*42
$GPGSV,2,1,07,02,27,043,26,05,28,094,33,20,25,150,28,21,27,219,36*79
$GPGSV,2,2,07,25,78,036,32,29,56,323,33,31,26,305,37*4C
$GLGSV,2,1,07,74,29,326,35,73,73,261,33,82,11,045,28,84,37,271,29*6B
$GLGSV,2,2,07,83,52,357,33,67,10,057,30,68,09,108,23*51
$GPGSA,A,3,02,05,20,21,25,29,31,,,,,,1.1,0.7,0.8*35
$GPVTG,330.9,T,330.9,M,1.8,N,3.4,K,D*28
$GPRMC,160449,A,3206.418852,N,03512.280972,E,1.8,330.9,030516,3.0,E,D*14
$GPGGA,160449,3206.418852,N,03512.280972,E,2,07,0.7,643.0,M,19.0,M,,*40
$GPGSV,2,1,06,02,27,043,29,05,28,094,30,21,27,219,34,25,78,036,33*70
$GPGSV,2,2,06,29,56,323,27,31,26,305,34*77
$GLGSV,2,1,06,74,29,326,34,73,73,261,35,82,11,045,33,84,37,271,32*6D
$GLGSV,2,2,06,83,52,357,33,67,10,057,30*6F
$GPGSA,A,3,02,05,21,25,29,31,,,,,,,1.1,0.7,0.8*37
$GPVTG,,T,,M,0.0,N,0.0,K,D*26
$GPRMC,160450,A,3206.418822,N,03512.280748,E,0.0,,030516,3.0,E,D*32
$GPGGA,160450,3206.418822,N,03512.280748,E,2,06,0.7,643.0,M,19.0,M,,*49
$GPGSV,2,1,06,02,27,043,27,20,25,150,29,21,27,219,33,25,78,036,27*77
$GPGSV,2,2,06,29,56,323,31,31,26,305,37*73
$GLGSV,2,1,07,74,29,326,32,73,73,261,30,82,11,045,26,84,37,271,23*6B
$GLGSV,2,2,07,83,52,357,34,67,10,057,31,68,09,108,29*5D
$GPGSA,A,3,02,20,21,25,29,31,,,,,,,1.1,0.7,0.8*30
$GPVTG,,T,,M,0.0,N,0.0,K,D*26
$GPRMC,160451,A,3206.418696,N,03512.280681,E,0.0,,030516,3.0,E,D*36
$GPGGA,160451,3206.418696,N,03512.280681,E,2,06,0.7,643.0,M,19.0,M,,*4D
$GPGSV,2,1,08,02,27,043,28,12,47,112,29,20,25,150,25,21,27,219,30*78
